station_id,name,short_name,latitude,longitude,region_id,rental_methods,capacity,eightd_has_key_dispenser,num_bikes_available,num_bikes_disabled,num_docks_available,num_docks_disabled,is_installed,is_renting,is_returning,eightd_has_available_keys,last_reported
382,University Pl & E 14 St,5905.11,40.73492695,-73.99200509,71,"KEY,CREDITCARD",0,false,0,0,0,0,false,false,false,false,1970-01-01 00:00:00
3338,2 Ave & E 99 St,7386.10,40.7862586,-73.94552579,71,"KEY,CREDITCARD",0,false,0,0,0,0,true,true,true,false,1970-01-01 00:00:00
3512,27 Ave & 4 St,7132.01,40.7747175,-73.9337894,71,"KEY,CREDITCARD",0,false,0,0,0,0,false,false,false,false,1970-01-01 00:00:00
3709,W 15 St & 6 Ave,5989.02,40.738046142482766,-73.996429592370987,71,"KEY,CREDITCARD",0,false,0,0,0,0,false,false,false,false,1970-01-01 00:00:00
3584,Eastern Pkwy & Franklin Ave,3919.07,40.6707767,-73.9576801,71,"KEY,CREDITCARD",1,false,0,0,1,0,false,false,false,false,2019-09-01 00:00:00
3144,E 81 St & Park Ave,7188.10,40.77677702,-73.9590097,71,"KEY,CREDITCARD",2,false,0,0,2,0,false,false,false,false,2019-06-24 00:00:00
2010,Grand St & Greene St,5500.02,40.72165481,-74.00234737,71,"KEY,CREDITCARD",3,false,0,1,2,0,false,false,false,false,2019-09-01 00:00:00
3583,Eastern Pkwy & Washington Ave,3928.08,40.6716493,-73.9631145,71,"KEY,CREDITCARD",3,false,0,0,3,0,false,false,false,false,2019-09-01 00:00:00
3599,Franklin Ave & Empire Blvd,3704.01,40.66314,-73.9605695,71,"KEY,CREDITCARD",3,false,0,0,3,0,false,false,false,false,2019-09-01 00:00:00
3361,Carroll St & 6 Ave,4019.06,40.6740886,-73.9787282,71,"KEY,CREDITCARD",7,false,0,0,7,0,false,false,false,false,2019-08-12 00:00:00
3546,Pacific St & Classon Ave,4148.07,40.6791944,-73.9587903,71,"KEY,CREDITCARD",21,false,0,0,21,0,true,true,true,false,2019-09-01 00:00:00
3302,Columbus Ave & W 103 St,7595.17,40.7969347,-73.9643412291,71,"KEY,CREDITCARD",22,false,0,0,22,0,true,true,true,false,2019-09-01 00:00:00
3053,Marcy Ave & Lafayette Ave,4476.03,40.6900815,-73.947915,71,"KEY,CREDITCARD",23,false,0,0,23,0,true,true,true,false,2019-09-02 00:00:00
3055,Greene Ave & Nostrand Ave,4519.02,40.6883337,-73.950916,71,"KEY,CREDITCARD",23,false,0,0,23,0,true,true,true,false,2019-09-02 00:00:00
3306,10 St & 7 Ave,3762.08,40.6662078,-73.98199886,71,"KEY,CREDITCARD",23,false,0,0,23,0,true,true,true,false,2019-09-02 00:00:00
437,Macon St & Nostrand Ave,4214.03,40.6809833854,-73.9500479759,71,"KEY,CREDITCARD",24,false,0,0,24,0,true,true,true,false,2019-09-02 00:00:00
3549,Grand Ave & Bergen St,4190.06,40.678045,-73.962408,71,"KEY,CREDITCARD",25,false,0,1,24,0,true,true,true,false,2019-09-02 00:00:00
3206,Hilltop,JC019,40.7311689,-74.0575736,70,"KEY,CREDITCARD",26,false,0,0,26,0,true,true,true,false,2019-09-01 00:00:00
353,S Portland Ave & Hanson Pl,4354.05,40.68539567,-73.97431458,71,"KEY,CREDITCARD",27,false,0,0,27,0,true,true,true,false,2019-09-02 00:00:00
423,W 54 St & 9 Ave,6920.03,40.76584941,-73.98690506,71,"KEY,CREDITCARD",27,false,0,2,25,0,true,true,true,false,2019-09-02 00:00:00
3423,West Drive & Prospect Park West,3651.04,40.6610633719006,-73.979452550411224,71,"KEY,CREDITCARD",29,true,0,0,29,0,true,false,false,true,2019-08-26 00:00:00
416,Cumberland St & Lafayette Ave,4428.02,40.68753406,-73.97265183,71,"KEY,CREDITCARD",31,false,0,0,31,0,true,true,true,false,2019-09-02 00:00:00
3130,21 St & Queens Plaza North,6471.02,40.75325964,-73.94335788,71,"KEY,CREDITCARD",31,false,0,1,30,0,true,true,true,false,2019-09-02 00:00:00
3154,E 77 St & 3 Ave,7092.06,40.77314236,-73.95856158,71,"KEY,CREDITCARD",31,false,0,0,31,0,true,true,true,false,2019-09-02 00:00:00
3637,Fulton St & Waverly Ave,4345.11,40.683238654603414,-73.965995907783508,71,"KEY,CREDITCARD",31,false,0,1,30,0,true,true,true,false,2019-09-01 00:00:00
492,W 33 St & 7 Ave,6407.07,40.75019995,-73.99093085,71,"KEY,CREDITCARD",34,false,0,1,33,0,true,true,true,false,2019-09-02 00:00:00
3195,Sip Ave,JC056,40.730897097861792,-74.063912630081177,70,"KEY,CREDITCARD",34,false,0,0,34,0,true,true,true,false,2019-09-01 00:00:00
3362,Madison Ave & E 82 St,7188.13,40.7781314,-73.96069399,71,"KEY,CREDITCARD",34,false,0,1,33,0,true,true,true,false,2019-09-02 00:00:00
3359,E 68 St & Madison Ave,6932.15,40.7691572,-73.96703464,71,"KEY,CREDITCARD",35,false,0,0,35,0,true,true,true,false,2019-09-02 00:00:00
2023,E 55 St & Lexington Ave,6732.07,40.75968085,-73.97031366,71,"KEY,CREDITCARD",36,false,0,0,0,0,false,false,false,false,1970-01-01 00:00:00
337,Old Slip & Front St,4993.12,40.7037992,-74.00838676,71,"KEY,CREDITCARD",37,false,0,0,37,0,true,true,false,false,2019-09-02 00:00:00
3155,Lexington Ave & E 63 St,6830.08,40.76440023,-73.96648977,71,"KEY,CREDITCARD",39,false,0,1,38,0,true,true,true,false,2019-09-01 00:00:00
3231,E 67 St & Park Ave,6932.14,40.767800801481322,-73.965920805931091,71,"KEY,CREDITCARD",39,false,0,0,39,0,true,true,true,false,2019-09-02 00:00:00
485,W 37 St & 5 Ave,6398.06,40.75038009,-73.98338988,71,"KEY,CREDITCARD",40,false,0,3,37,0,true,true,true,false,2019-09-02 00:00:00
3536,W 116 St & Broadway,7713.11,40.8082,-73.9641,71,"KEY,CREDITCARD",43,false,0,0,43,0,true,true,true,false,2019-09-02 00:00:00
3538,W 110 St & Amsterdam Ave,7646.04,40.802692,-73.96295,71,"KEY,CREDITCARD",45,false,0,0,45,0,true,true,true,false,2019-09-01 00:00:00
484,W 44 St & 5 Ave,6551.02,40.75500254,-73.98014437,71,"KEY,CREDITCARD",46,false,0,1,45,0,true,true,true,false,2019-09-02 00:00:00
3143,5 Ave & E 78 St,7161.08,40.776321421822708,-73.964273929595947,71,"KEY,CREDITCARD",47,false,0,1,46,0,true,true,true,false,2019-09-02 00:00:00
3146,E 81 St & 3 Ave,7154.07,40.77573034,-73.9567526,71,"KEY,CREDITCARD",47,false,0,0,47,0,true,true,true,false,2019-09-02 00:00:00
3134,3 Ave & E 62 St,6762.04,40.76312584,-73.96526895,71,"KEY,CREDITCARD",51,false,0,0,51,0,true,true,true,false,2019-09-02 00:00:00
3640,Journal Square,JC103,40.73367,-74.0625,70,"KEY,CREDITCARD",18,false,1,0,17,0,true,true,true,false,2019-09-01 00:00:00
3564,21 St & 36 Ave,6729.02,40.7601853,-73.9362726,71,"KEY,CREDITCARD",19,false,1,0,18,0,true,true,true,false,2019-09-01 00:00:00
3063,Nostrand Ave & Myrtle Ave,4707.04,40.69527008,-73.95238108,71,"KEY,CREDITCARD",20,false,1,1,18,0,true,true,true,false,2019-09-02 00:00:00
3047,Halsey St & Tompkins Ave,4319.07,40.6823687,-73.944118,71,"KEY,CREDITCARD",21,false,1,0,20,0,true,true,true,false,2019-09-02 00:00:00
3297,6 St & 7 Ave,3834.10,40.6686627,-73.97988067,71,"KEY,CREDITCARD",21,false,1,0,20,0,true,true,true,false,2019-09-01 00:00:00
3673,Dean St & Franklin Ave,4107.13,40.677592069373759,-73.955637216568,71,"KEY,CREDITCARD",21,false,1,0,20,0,true,true,true,false,2019-09-02 00:00:00
3765,Bushwick Ave & Stagg St,5140.06,40.709897,-73.94008,71,"KEY,CREDITCARD",21,false,1,1,19,0,true,true,true,false,2019-09-02 00:00:00
3481,York St,JC096,40.71649,-74.04105,70,"KEY,CREDITCARD",22,false,1,0,21,0,true,true,true,false,2019-09-01 00:00:00
3787,Dock 72 Way & Market St,4804.02,40.69985,-73.97141,71,"KEY,CREDITCARD",22,false,1,0,21,0,true,true,true,false,2019-09-01 00:00:00
3062,Myrtle Ave & Marcy Ave,4707.03,40.69539817,-73.94954908,71,"KEY,CREDITCARD",23,true,1,0,22,0,true,true,true,true,2019-09-02 00:00:00
3405,5 St & 6 Ave,3874.01,40.6704836,-73.98208968,71,"KEY,CREDITCARD",23,false,1,0,22,0,true,true,true,false,2019-09-02 00:00:00
3585,Union St & Bedford Ave,3879.04,40.6691783,-73.9554162,71,"KEY,CREDITCARD",24,false,1,0,23,0,true,true,true,false,2019-09-02 00:00:00
396,Lefferts Pl & Franklin Ave,4222.02,40.680342423,-73.9557689392,71,"KEY,CREDITCARD",25,false,1,0,24,0,true,true,true,false,2019-09-02 00:00:00
3300,Prospect Park West & 8 St,3722.04,40.66514681533792,-73.976376056671143,71,"KEY,CREDITCARD",25,true,1,0,24,0,true,true,true,true,2019-09-02 00:00:00
3523,24 Ave & 29 St,7119.04,40.7729,-73.916142,71,"KEY,CREDITCARD",25,false,1,0,24,0,true,true,true,false,2019-09-02 00:00:00
3561,37 Ave & 35 St,6529.02,40.7531106,-73.9279917,71,"KEY,CREDITCARD",26,false,1,0,25,0,true,true,true,false,2019-09-02 00:00:00
3044,Albany Ave & Fulton St,4237.02,40.6800105,-73.938475,71,"KEY,CREDITCARD",27,false,1,0,26,0,true,true,true,false,2019-09-01 00:00:00
3542,Amsterdam Ave & W 119 St,7727.07,40.8086249,-73.9596214,71,"KEY,CREDITCARD",29,false,1,0,28,0,true,true,true,false,2019-09-02 00:00:00
3349,Grand Army Plaza & Plaza St West,4010.15,40.6729679,-73.97087984,71,"KEY,CREDITCARD",30,false,1,1,28,0,true,true,true,false,2019-09-02 00:00:00
398,Atlantic Ave & Furman St,4614.04,40.69165183,-73.9999786,71,"KEY,CREDITCARD",31,false,1,1,29,0,true,true,true,false,2019-09-02 00:00:00
3354,3 St & Prospect Park West,3865.05,40.668132,-73.97363831,71,"KEY,CREDITCARD",31,true,1,3,27,0,true,true,true,true,2019-09-01 00:00:00
3366,West End Ave & W 107 St,7650.05,40.8021174,-73.9681805305,71,"KEY,CREDITCARD",31,false,1,0,30,0,true,true,true,false,2019-09-02 00:00:00
3570,35 Ave & 37 St,6563.12,40.7557327,-73.9236611,71,"KEY,CREDITCARD",31,false,1,0,30,0,true,true,true,false,2019-09-02 00:00:00
3747,E 84 St & 3 Ave,7212.02,40.777553742988871,-73.955127596855164,71,"KEY,CREDITCARD",33,false,1,0,32,0,true,true,true,false,2019-09-02 00:00:00
3654,31 St & Northern Blvd,6495.17,40.751869514218747,-73.933492898941026,71,"KEY,CREDITCARD",35,false,1,0,34,0,true,true,true,false,2019-09-02 00:00:00
489,10 Ave & W 28 St,6459.04,40.75066386,-74.00176802,71,"KEY,CREDITCARD",37,false,1,1,35,0,true,true,true,false,2019-09-02 00:00:00
3233,E 48 St & 5 Ave,6626.01,40.757245679117261,-73.978059142827988,71,"KEY,CREDITCARD",39,false,1,0,38,0,true,true,true,false,2019-09-02 00:00:00
3301,Columbus Ave & W 95 St,7520.07,40.7919557,-73.968087,71,"KEY,CREDITCARD",39,false,1,1,37,0,true,true,true,false,2019-09-02 00:00:00
3429,Hanson Pl & Ashland Pl,4395.07,40.685068073081773,-73.977907598018632,71,"KEY,CREDITCARD",39,false,1,0,37,1,true,true,true,false,2019-09-02 00:00:00
168,W 18 St & 6 Ave,6064.08,40.73971301,-73.99456405,71,"KEY,CREDITCARD",47,false,1,1,45,0,true,true,true,false,2019-09-02 00:00:00
3809,W 55 St & 6 Ave,6809.09,40.763201,-73.978458,71,"KEY,CREDITCARD",53,false,1,0,52,0,true,true,true,false,2019-09-02 00:00:00
3680,E 43 St & 5 Ave,6551.03,40.754120810779256,-73.980251848697662,71,"KEY,CREDITCARD",55,false,1,1,53,0,true,true,true,false,2019-09-02 00:00:00
3714,Division Av & Hooper St,5045.05,40.706842031013252,-73.9544353965357,71,"KEY,CREDITCARD",61,false,1,1,59,0,true,true,true,false,2019-09-02 00:00:00
490,8 Ave & W 33 St,6450.12,40.751551,-73.993934,71,"KEY,CREDITCARD",66,false,1,3,62,0,true,true,true,false,2019-09-02 00:00:00
3595,35 St & Broadway,6750.16,40.760339,-73.9222427,71,"KEY,CREDITCARD",18,false,2,0,16,0,true,true,true,false,2019-09-02 00:00:00
3678,Fairmount Ave,JC093,40.725726137425568,-74.071959257125854,70,"KEY,CREDITCARD",18,false,2,0,16,0,true,true,true,false,2019-09-01 00:00:00
3071,Boerum St & Broadway,5004.02,40.70538077,-73.94976519,71,"KEY,CREDITCARD",19,false,2,0,17,0,true,true,true,false,2019-09-02 00:00:00
3249,Verona Pl & Fulton St,4124.04,40.6803560840434,-73.9476791024208,71,"KEY,CREDITCARD",19,false,2,0,17,0,true,true,true,false,2019-09-02 00:00:00
3598,Newton Rd & 44 St,6743.06,40.7595701,-73.9142678,71,"KEY,CREDITCARD",19,false,2,0,17,0,true,true,true,false,2019-09-02 00:00:00
3767,Powers St & Olive St,5210.01,40.71323,-73.93894,71,"KEY,CREDITCARD",19,false,2,1,16,0,true,true,true,false,2019-09-02 00:00:00
3603,31 Ave & 30 St,6857.09,40.7647,-73.9240312,71,"KEY,CREDITCARD",21,false,2,0,19,0,true,true,true,false,2019-09-02 00:00:00
3615,44 Dr & 21 St,6278.04,40.748,-73.9460927,71,"KEY,CREDITCARD",21,false,2,0,19,0,true,true,true,false,2019-09-02 00:00:00
3662,31 Ave & Steinway St,6782.07,40.761293897289086,-73.916916847229,71,"KEY,CREDITCARD",21,false,2,0,19,0,true,true,true,false,2019-09-02 00:00:00
3194,McGinley Square,JC055,40.7253399253558,-74.067622125148773,70,"KEY,CREDITCARD",22,false,2,1,19,0,true,true,true,false,2019-09-01 00:00:00
270,Adelphi St & Myrtle Ave,4620.02,40.69308257,-73.97178913,71,"KEY,CREDITCARD",23,false,2,0,21,0,true,true,true,false,2019-09-02 00:00:00
344,Monroe St & Bedford Ave,4368.05,40.6851443,-73.95380904,71,"KEY,CREDITCARD",23,false,2,0,21,0,true,true,true,false,2019-09-02 00:00:00
420,Clermont Ave & Lafayette Ave,4461.01,40.68764484,-73.96968902,71,"KEY,CREDITCARD",23,false,2,1,20,0,true,true,true,false,2019-09-02 00:00:00
3082,Hope St & Union Ave,5187.03,40.71167351,-73.95141312,71,"KEY,CREDITCARD",25,false,2,1,22,0,true,true,true,false,2019-09-02 00:00:00
3299,E 98 St & Park Ave,7443.17,40.78813,-73.95206,71,"KEY,CREDITCARD",25,false,2,0,23,0,true,true,true,false,2019-09-02 00:00:00
3573,35 St & 34 Ave,6679.11,40.7580583,-73.9242751,71,"KEY,CREDITCARD",25,false,2,0,23,0,true,true,true,false,2019-09-02 00:00:00
3597,43 St & Broadway,6670.03,40.7577284,-73.9166368,71,"KEY,CREDITCARD",25,false,2,2,21,0,true,true,true,false,2019-09-02 00:00:00
3618,27 St & Hunter St,6310.06,40.7485,-73.941275,71,"KEY,CREDITCARD",25,false,2,0,23,0,true,true,true,false,2019-09-02 00:00:00
372,Franklin Ave & Myrtle Ave,4715.01,40.694546087246025,-73.958013653755188,71,"KEY,CREDITCARD",27,false,2,0,25,0,true,true,true,false,2019-09-02 00:00:00
3078,Broadway & Roebling St,5125.07,40.709248262761569,-73.960631489753723,71,"KEY,CREDITCARD",27,false,2,1,24,0,true,true,true,false,2019-09-02 00:00:00
3526,31 St & 23 Ave,7144.01,40.7747878,-73.9125551,71,"KEY,CREDITCARD",27,false,2,0,25,0,true,true,true,false,2019-09-02 00:00:00
3576,Park Pl & Vanderbilt Ave,4083.13,40.6767,-73.969024,71,"KEY,CREDITCARD",27,false,2,0,25,0,true,true,true,false,2019-09-02 00:00:00
3581,Underhill Ave & Lincoln Pl,4042.08,40.6740123,-73.9671457,71,"KEY,CREDITCARD",27,false,2,0,25,0,true,true,true,false,2019-09-02 00:00:00
3788,E 12 St & 4 Av,5788.14,40.73269,-73.98974,71,"KEY,CREDITCARD",27,false,2,0,25,0,true,true,true,false,2019-09-02 00:00:00
3378,E 76 St & Park Ave,7128.08,40.773763,-73.96222088,71,"KEY,CREDITCARD",28,false,2,0,26,0,true,true,true,false,2019-09-02 00:00:00
3569,Franklin Ave & St Marks Ave,4107.05,40.6758324,-73.9561677,71,"KEY,CREDITCARD",29,false,2,0,27,0,true,true,true,false,2019-09-02 00:00:00
3664,North Moore St & Greenwich St,5470.12,40.720195214374648,-74.0103006362915,71,"KEY,CREDITCARD",30,false,2,0,27,1,true,true,true,false,2019-09-02 00:00:00
3137,5 Ave & E 73 St,7100.07,40.77282817,-73.96685276,71,"KEY,CREDITCARD",31,true,2,2,27,0,true,true,true,true,2019-09-02 00:00:00
3175,W 70 St & Amsterdam Ave,7207.08,40.77748046,-73.98288594,71,"KEY,CREDITCARD",31,false,2,0,29,0,true,true,true,false,2019-09-02 00:00:00
305,E 58 St & 3 Ave,6762.02,40.76095756,-73.96724467,71,"KEY,CREDITCARD",33,false,2,0,31,0,true,true,true,false,2019-09-02 00:00:00
483,E 12 St & 3 Ave,5788.12,40.73223272,-73.98889957,71,"KEY,CREDITCARD",34,false,2,0,32,0,true,true,true,false,2019-09-02 00:00:00
456,E 53 St & Madison Ave,6659.03,40.7597108,-73.97402311,71,"KEY,CREDITCARD",35,false,2,0,33,0,true,true,true,false,2019-09-02 00:00:00
3357,W 106 St & Amsterdam Ave,7634.01,40.8008363,-73.9664492472,71,"KEY,CREDITCARD",35,false,2,0,33,0,true,true,true,false,2019-09-02 00:00:00
3286,E 89 St & 3 Ave,7265.10,40.7806284,-73.9521667,71,"KEY,CREDITCARD",39,false,2,0,37,0,true,true,true,false,2019-09-02 00:00:00
520,W 52 St & 5 Ave,6700.01,40.75992262,-73.97648516,71,"KEY,CREDITCARD",41,false,2,0,39,0,true,true,true,false,2019-09-02 00:00:00
464,E 56 St & 3 Ave,6691.11,40.75934501,-73.96759673,71,"KEY,CREDITCARD",53,false,2,1,50,0,true,true,true,false,2019-09-02 00:00:00
267,Broadway & W 36 St,6441.01,40.75097711,-73.98765428,71,"KEY,CREDITCARD",54,false,2,2,50,0,true,true,true,false,2019-09-02 00:00:00
469,Broadway & W 53 St,6779.05,40.76344058,-73.98268129,71,"KEY,CREDITCARD",57,false,2,1,54,0,true,true,true,false,2019-09-02 00:00:00
468,Broadway & W 56 St,6847.02,40.7652654,-73.98192338,71,"KEY,CREDITCARD",65,false,2,3,60,0,true,true,true,false,2019-09-02 00:00:00
3278,Monmouth and 6th,JC075,40.725685483629007,-74.048790335655212,70,"KEY,CREDITCARD",14,false,3,1,10,0,true,true,true,false,2019-09-01 00:00:00
3281,Leonard Gordon Park,JC080,40.74590996631558,-74.0572714805603,70,"KEY,CREDITCARD",14,false,3,0,11,0,true,true,true,false,2019-09-01 00:00:00
3604,Rogers Ave & Sterling St,3696.05,40.6630619,-73.9538746,71,"KEY,CREDITCARD",17,false,3,1,13,0,true,true,true,false,2019-09-02 00:00:00
3094,Graham Ave & Withers St,5403.04,40.7169811,-73.94485918,71,"KEY,CREDITCARD",18,false,3,0,15,0,true,true,true,false,2019-09-01 00:00:00
3202,Newport PATH,JC066,40.7272235,-74.0337589,70,"KEY,CREDITCARD",18,false,3,0,15,0,true,true,true,false,2019-09-02 00:00:00
421,Clermont Ave & Park Ave,4692.01,40.69573398,-73.97129668,71,"KEY,CREDITCARD",19,false,3,0,16,0,true,true,true,false,2019-09-02 00:00:00
3048,Putnam Ave & Nostrand Ave,4327.09,40.68402,-73.94977,71,"KEY,CREDITCARD",19,false,3,0,16,0,true,true,true,false,2019-09-02 00:00:00
3060,Willoughby Ave & Tompkins Ave,4665.02,40.69425403,-73.94626915,71,"KEY,CREDITCARD",19,false,3,0,16,0,true,true,true,false,2019-09-02 00:00:00
3556,24 St & 41 Ave,6505.01,40.7527085,-73.9397405,71,"KEY,CREDITCARD",19,false,3,2,14,0,true,true,true,false,2019-09-01 00:00:00
3557,40 Ave & 9 St,6664.05,40.75742,-73.945133,71,"KEY,CREDITCARD",19,false,3,0,16,0,true,true,true,false,2019-09-02 00:00:00
3772,Devoe St & Morgan Ave,5282.02,40.713811,-73.93515,71,"KEY,CREDITCARD",19,false,3,0,16,0,true,true,true,false,2019-09-02 00:00:00
3061,Throop Ave & Myrtle Ave,4697.01,40.69622937,-73.94371094,71,"KEY,CREDITCARD",21,false,3,0,18,0,true,true,true,false,2019-09-02 00:00:00
3356,Amsterdam Ave & W 66 St,7149.05,40.7746671,-73.98470567,71,"KEY,CREDITCARD",21,false,3,0,18,0,true,true,true,false,2019-09-01 00:00:00
3606,49 Ave & 21 St,6128.04,40.74252,-73.948852,71,"KEY,CREDITCARD",21,false,3,0,18,0,true,true,true,false,2019-09-02 00:00:00
3056,Kosciuszko St & Nostrand Ave,4519.04,40.69072549,-73.95133465,71,"KEY,CREDITCARD",23,false,3,0,20,0,true,true,true,false,2019-09-02 00:00:00
3574,Prospect Pl & Underhill Ave,4116.08,40.6769694,-73.96579,71,"KEY,CREDITCARD",23,false,3,0,20,0,true,true,true,false,2019-09-01 00:00:00
3620,11 St & 43 Ave,6438.04,40.7519071,-73.9479119,71,"KEY,CREDITCARD",23,false,3,1,19,0,true,true,true,false,2019-09-02 00:00:00
3716,40 Ave & Crescent St,6462.05,40.753599202005596,-73.937956094741821,71,"KEY,CREDITCARD",23,false,3,0,20,0,true,true,true,false,2019-09-02 00:00:00
3041,Kingston Ave & Herkimer St,4205.06,40.67890679,-73.94142771,71,"KEY,CREDITCARD",24,false,3,2,19,0,true,true,true,false,2019-09-02 00:00:00
3383,Cathedral Pkwy & Broadway,7680.03,40.804213,-73.96699104,71,"KEY,CREDITCARD",25,false,3,0,22,0,true,true,true,false,2019-09-02 00:00:00
3416,7 Ave & Park Pl,4125.07,40.6776147,-73.97324283,71,"KEY,CREDITCARD",25,false,3,1,21,0,true,true,true,false,2019-09-02 00:00:00
3579,Sterling Pl & Bedford Ave,3993.03,40.672695,-73.954131,71,"KEY,CREDITCARD",25,false,3,0,22,0,true,true,true,false,2019-09-02 00:00:00
268,Howard St & Centre St,5422.04,40.71910537,-73.99973337,71,"KEY,CREDITCARD",27,false,3,1,23,0,true,true,true,false,2019-09-02 00:00:00
436,Hancock St & Bedford Ave,4255.05,40.68216564,-73.95399026,71,"KEY,CREDITCARD",27,false,3,0,24,0,true,true,true,false,2019-09-02 00:00:00
3121,Jackson Ave & 46 Rd,6203.02,40.74524768,-73.94733276,71,"KEY,CREDITCARD",27,false,3,0,24,0,true,true,true,false,2019-09-02 00:00:00
3304,6 Ave & 9 St,3803.09,40.668127,-73.98377641,71,"KEY,CREDITCARD",27,false,3,0,24,0,true,true,true,false,2019-09-02 00:00:00
3587,Carroll St & Washington Ave,3887.03,40.6686744,-73.9618148,71,"KEY,CREDITCARD",27,false,3,0,24,0,true,true,true,false,2019-09-02 00:00:00
3617,28 Ave & 35 St,6951.03,40.7671,-73.9169858,71,"KEY,CREDITCARD",27,false,3,0,24,0,true,true,true,false,2019-09-01 00:00:00
3708,W 13 St & 5 Ave,5947.04,40.735445,-73.99431,71,"KEY,CREDITCARD",29,false,3,0,26,0,true,true,true,false,2019-09-02 00:00:00
3086,Graham Ave & Conselyea St,5291.05,40.715143,-73.944507,71,"KEY,CREDITCARD",30,false,3,2,25,0,true,true,true,false,2019-09-02 00:00:00
3087,Metropolitan Ave & Meeker Ave,5300.05,40.71413311,-73.95234386,71,"KEY,CREDITCARD",30,false,3,1,26,0,true,true,true,false,2019-09-02 00:00:00
3580,St Johns Pl & Washington Ave,4001.09,40.6737236,-73.9631611,71,"KEY,CREDITCARD",30,false,3,0,27,0,true,true,true,false,2019-09-01 00:00:00
3628,Lenox Ave & W 117 St,7655.22,40.8025566,-73.9490782,71,"KEY,CREDITCARD",31,false,3,0,28,0,true,true,true,false,2019-09-02 00:00:00
3789,Fulton St & Irving Pl,4263.12,40.68186,-73.959432,71,"KEY,CREDITCARD",31,false,3,0,28,0,true,true,true,false,2019-09-02 00:00:00
151,Cleveland Pl & Spring St,5492.05,40.722103786686034,-73.997249007225037,71,"KEY,CREDITCARD",33,true,3,0,30,0,true,true,true,true,2019-09-02 00:00:00
3418,Plaza St West & Flatbush Ave,4010.13,40.6750207,-73.97111473,71,"KEY,CREDITCARD",33,true,3,0,30,0,true,true,true,true,2019-09-02 00:00:00
3126,44 Dr & Jackson Ave,6352.01,40.74718234,-73.9432635,71,"KEY,CREDITCARD",34,false,3,0,31,0,true,true,true,false,2019-09-02 00:00:00
3132,E 59 St & Madison Ave,6801.01,40.76350532,-73.97109243,71,"KEY,CREDITCARD",35,false,3,0,32,0,true,true,true,false,2019-09-02 00:00:00
3345,Madison Ave & E 99 St,7443.01,40.789485415532148,-73.952429294586182,71,"KEY,CREDITCARD",35,false,3,0,32,0,true,true,true,false,2019-09-02 00:00:00
3543,Morningside Dr & Amsterdam Ave,7741.04,40.810285063060029,-73.957364559173584,71,"KEY,CREDITCARD",35,false,3,0,32,0,true,true,true,false,2019-09-02 00:00:00
486,Broadway & W 29 St,6289.06,40.7462009,-73.98855723,71,"KEY,CREDITCARD",41,false,3,1,37,0,true,true,true,false,2019-09-02 00:00:00
3443,W 52 St & 6 Ave,6740.01,40.76132983124814,-73.979820013046265,71,"KEY,CREDITCARD",41,false,3,0,38,0,true,true,true,false,2019-09-02 00:00:00
379,W 31 St & 7 Ave,6331.01,40.749156,-73.9916,71,"KEY,CREDITCARD",42,false,3,1,38,0,true,true,true,false,2019-09-02 00:00:00
3152,3 Ave & E 71 St,6960.10,40.76873687,-73.96119945,71,"KEY,CREDITCARD",42,false,3,0,39,0,true,true,true,false,2019-09-01 00:00:00
3186,Grove St PATH,JC005,40.71958611647166,-74.043117463588715,70,"KEY,CREDITCARD",42,false,3,3,35,1,true,true,true,false,2019-09-02 00:00:00
3145,E 84 St & Park Ave,7243.04,40.77862688,-73.95772073,71,"KEY,CREDITCARD",45,false,3,0,42,0,true,true,true,false,2019-09-02 00:00:00
3136,5 Ave & E 63 St,6904.06,40.766368,-73.971518,71,"KEY,CREDITCARD",47,false,3,1,43,0,true,true,true,false,2019-09-02 00:00:00
3057,Kosciuszko St & Tompkins Ave,4553.04,40.69128258,-73.9452416,71,"KEY,CREDITCARD",18,false,4,0,14,0,true,true,true,false,2019-09-02 00:00:00
3220,5 Corners Library,JC018,40.734961020009514,-74.0595030784607,70,"KEY,CREDITCARD",18,false,4,0,14,0,true,true,true,false,2019-09-02 00:00:00
3677,Glenwood Ave,JC094,40.727551467300117,-74.071060717105865,70,"KEY,CREDITCARD",18,false,4,1,13,0,true,true,true,false,2019-09-01 00:00:00
120,Lexington Ave & Classon Ave,4452.03,40.68676793,-73.95928168,71,"KEY,CREDITCARD",19,false,4,0,15,0,true,true,true,false,2019-09-02 00:00:00
3054,Greene Ave & Throop Ave,4510.04,40.6894932,-73.942061,71,"KEY,CREDITCARD",19,false,4,1,14,0,true,true,true,false,2019-09-02 00:00:00
3088,Union Ave & Jackson St,5300.06,40.7160751,-73.952029,71,"KEY,CREDITCARD",19,false,4,0,15,0,true,true,true,false,2019-09-02 00:00:00
3050,Putnam Ave & Throop Ave,4392.04,40.6851532,-73.94111,71,"KEY,CREDITCARD",21,false,4,3,14,0,true,true,true,false,2019-09-01 00:00:00
3578,Park Pl & Franklin Ave,4033.06,40.6741806,-73.9564947,71,"KEY,CREDITCARD",21,false,4,1,16,0,true,true,true,false,2019-09-02 00:00:00
313,Washington Ave & Park Ave,4724.03,40.69610226,-73.96751037,71,"KEY,CREDITCARD",23,false,4,0,19,0,true,true,true,false,2019-09-02 00:00:00
3064,Myrtle Ave & Lewis Ave,4729.01,40.69681963,-73.93756926,71,"KEY,CREDITCARD",23,false,4,3,16,0,true,true,true,false,2019-09-02 00:00:00
3125,45 Rd & 11 St,6319.01,40.74708586,-73.94977234,71,"KEY,CREDITCARD",23,false,4,0,19,0,true,true,true,false,2019-09-02 00:00:00
3179,Park Ave & Marcus Garvey Blvd,4768.02,40.698617,-73.941342,71,"KEY,CREDITCARD",23,false,4,0,19,0,true,true,true,false,2019-09-02 00:00:00
3355,E 66 St & Madison Ave,6969.08,40.768008893059474,-73.96845281124115,71,"KEY,CREDITCARD",25,false,4,0,21,0,true,true,true,false,2019-09-02 00:00:00
3616,Steinway St & 28 Ave,6915.02,40.7656251,-73.9136695,71,"KEY,CREDITCARD",25,false,4,0,21,0,true,true,true,false,2019-09-02 00:00:00
364,Lafayette Ave & Classon Ave,4452.01,40.68900443,-73.96023854,71,"KEY,CREDITCARD",27,false,4,1,22,0,true,true,true,false,2019-09-02 00:00:00
3092,Berry St & N 8 St,5379.09,40.7190095,-73.95852515,71,"KEY,CREDITCARD",27,false,4,0,23,0,true,true,true,false,2019-09-02 00:00:00
3172,W 74 St & Columbus Ave,7230.10,40.7785669,-73.97754961,71,"KEY,CREDITCARD",27,false,4,0,23,0,true,true,true,false,2019-09-02 00:00:00
3558,Bergen St & Vanderbilt Ave,4157.10,40.6794388,-73.9680438,71,"KEY,CREDITCARD",27,false,4,1,22,0,true,true,true,false,2019-09-02 00:00:00
3562,Classon Ave & St Marks Ave,4074.03,40.6765198,-73.9596082,71,"KEY,CREDITCARD",27,false,4,0,23,0,true,true,true,false,2019-09-02 00:00:00
3369,E 82 St & East End Ave,7049.04,40.7724607,-73.9468208,71,"KEY,CREDITCARD",29,false,4,0,25,0,true,true,true,false,2019-09-02 00:00:00
3563,28 St & 36 Ave,6614.01,40.757186,-73.932719,71,"KEY,CREDITCARD",29,false,4,0,25,0,true,true,true,false,2019-09-02 00:00:00
3503,Madison Ave & E 120 St,7667.04,40.80295,-73.942954,71,"KEY,CREDITCARD",30,false,4,1,25,0,true,true,true,false,2019-09-02 00:00:00
391,Clark St & Henry St,4789.03,40.69760127,-73.99344559,71,"KEY,CREDITCARD",31,false,4,0,27,0,true,true,true,false,2019-09-02 00:00:00
458,11 Ave & W 27 St,6425.04,40.751396,-74.005226,71,"KEY,CREDITCARD",31,false,4,0,27,0,true,true,true,false,2019-09-02 00:00:00
3129,Queens Plaza North & Crescent St,6429.01,40.75110165,-73.94073717,71,"KEY,CREDITCARD",31,true,4,2,25,0,true,true,true,true,2019-09-01 00:00:00
3131,E 68 St & 3 Ave,6896.16,40.76712840349542,-73.962246179580688,71,"KEY,CREDITCARD",31,false,4,0,27,0,true,true,true,false,2019-09-01 00:00:00
440,E 45 St & 3 Ave,6464.08,40.75255434,-73.97282625,71,"KEY,CREDITCARD",32,false,4,1,27,0,true,true,true,false,2019-09-02 00:00:00
3075,Division Ave & Marcy Ave,5084.03,40.70708701,-73.95796783,71,"KEY,CREDITCARD",33,false,4,2,27,0,true,true,true,false,2019-09-01 00:00:00
467,Dean St & 4 Ave,4322.02,40.68312489,-73.97895137,71,"KEY,CREDITCARD",34,false,4,5,25,0,true,true,true,false,2019-09-02 00:00:00
250,Lafayette St & Jersey St,5561.06,40.72456089,-73.99565293,71,"KEY,CREDITCARD",40,false,4,0,36,0,true,true,true,false,2019-09-02 00:00:00
3341,Central Park West & W 102 St,7577.24,40.795346,-73.96186,71,"KEY,CREDITCARD",41,true,4,0,37,0,true,true,true,true,2019-09-02 00:00:00
500,Broadway & W 51 St,6779.04,40.76228826,-73.98336183,71,"KEY,CREDITCARD",52,false,4,0,48,0,true,true,true,false,2019-09-02 00:00:00
285,Broadway & E 14 St,5905.12,40.73454567,-73.99074142,71,"KEY,CREDITCARD",53,true,4,0,49,0,true,true,true,true,2019-09-02 00:00:00
3269,Brunswick & 6th,JC081,40.726011729646252,-74.050388932228088,70,"KEY,CREDITCARD",14,false,5,1,8,0,true,true,true,false,2019-09-02 00:00:00
3681,Grand St,JC102,40.715177677320291,-74.037683308124542,70,"KEY,CREDITCARD",17,false,5,1,11,0,true,true,true,false,2019-09-02 00:00:00
3273,Manila & 1st,JC082,40.721650724879986,-74.042884111404419,70,"KEY,CREDITCARD",18,false,5,1,12,0,true,true,true,false,2019-09-02 00:00:00
3279,Dixon Mills,JC076,40.721630142638354,-74.04996782541275,70,"KEY,CREDITCARD",18,false,5,0,13,0,true,true,true,false,2019-09-01 00:00:00
275,Washington Ave & Greene Ave,4419.03,40.68650065,-73.96563307,71,"KEY,CREDITCARD",19,false,5,0,14,0,true,true,true,false,2019-09-02 00:00:00
3592,Crescent St & Broadway,6827.11,40.7633589,-73.9286471,71,"KEY,CREDITCARD",19,false,5,0,14,0,true,true,true,false,2019-09-02 00:00:00
3456,Jackson St & Leonard St,5332.10,40.716380319735613,-73.948212862014771,71,"KEY,CREDITCARD",22,false,5,0,17,0,true,true,true,false,2019-09-02 00:00:00
3128,21 St & 43 Ave,6395.01,40.75052534,-73.94594845,71,"KEY,CREDITCARD",23,false,5,2,16,0,true,true,true,false,2019-09-01 00:00:00
3402,Court St & State St,4488.08,40.6902375,-73.99203074,71,"KEY,CREDITCARD",23,false,5,0,18,0,true,true,true,false,2019-09-02 00:00:00
262,Washington Park,4546.05,40.6917823,-73.9737299,71,"KEY,CREDITCARD",24,false,5,0,19,0,true,true,true,false,2019-09-02 00:00:00
3058,Lewis Ave & Kosciuszko St,4617.01,40.69237074,-73.93705428,71,"KEY,CREDITCARD",24,false,5,0,19,0,true,true,true,false,2019-09-02 00:00:00
3370,E 78 St & 2 Ave,7057.07,40.7727966,-73.95577801,71,"KEY,CREDITCARD",25,false,5,0,20,0,true,true,true,false,2019-09-02 00:00:00
3566,Crescent St & 35 Ave,6688.01,40.7596276,-73.9321455,71,"KEY,CREDITCARD",25,false,5,0,20,0,true,true,true,false,2019-09-02 00:00:00
3492,E 118 St & Park Ave,7625.18,40.8005385,-73.9419949,71,"KEY,CREDITCARD",27,false,5,0,22,0,true,true,true,false,2019-09-02 00:00:00
3531,Frederick Douglass Blvd & W 129 St,7795.09,40.8125511,-73.9492286,71,"KEY,CREDITCARD",27,false,5,0,22,0,true,true,true,false,2019-09-02 00:00:00
3554,Vernon Blvd & 41 Rd,6514.08,40.7552433,-73.9485678,71,"KEY,CREDITCARD",27,false,5,0,22,0,true,true,true,false,2019-09-01 00:00:00
3501,E 118 St & Madison Ave,7640.04,40.8014866,-73.9442507,71,"KEY,CREDITCARD",29,false,5,0,24,0,true,true,true,false,2019-09-02 00:00:00
3309,E 97 St & 3 Ave,7365.08,40.7859201,-73.94860294,71,"KEY,CREDITCARD",30,false,5,0,25,0,true,true,true,false,2019-09-02 00:00:00
334,W 20 St & 7 Ave,6182.02,40.74238787,-73.99726235,71,"KEY,CREDITCARD",31,false,5,1,25,0,true,true,true,false,2019-09-02 00:00:00
503,E 20 St & Park Ave,6055.08,40.73827428,-73.98751968,71,"KEY,CREDITCARD",31,false,5,1,25,0,true,true,true,false,2019-09-02 00:00:00
3159,W 67 St & Broadway,7116.04,40.77492513,-73.98266566,71,"KEY,CREDITCARD",31,false,5,0,26,0,true,true,true,false,2019-09-02 00:00:00
3235,E 41 St & Madison Ave,6474.12,40.752165280621966,-73.979921936988816,71,"KEY,CREDITCARD",31,false,5,0,26,0,true,true,true,false,2019-09-02 00:00:00
79,Franklin St & W Broadway,5430.08,40.71911552,-74.00666661,71,"KEY,CREDITCARD",33,false,5,0,28,0,true,true,true,false,2019-09-02 00:00:00
499,Broadway & W 60 St,6948.11,40.76915505,-73.98191841,71,"KEY,CREDITCARD",36,true,5,6,25,0,true,true,true,true,2019-09-02 00:00:00
3171,Amsterdam Ave & W 82 St,7360.10,40.78524672,-73.97667321,71,"KEY,CREDITCARD",39,false,5,1,33,0,true,true,true,false,2019-09-02 00:00:00
3135,E 75 St & 3 Ave,6991.12,40.77112927,-73.95772297,71,"KEY,CREDITCARD",41,false,5,0,36,0,true,true,true,false,2019-09-02 00:00:00
3074,Montrose Ave & Bushwick Ave,5068.02,40.70767788,-73.94016171,71,"KEY,CREDITCARD",42,false,5,0,37,0,true,true,true,false,2019-09-02 00:00:00
2021,W 45 St & 8 Ave,6676.02,40.75929124,-73.98859651,71,"KEY,CREDITCARD",43,false,5,1,37,0,true,true,true,false,2019-09-02 00:00:00
167,E 39 St & 3 Ave,6389.03,40.7489006,-73.97604882,71,"KEY,CREDITCARD",45,false,5,0,40,0,true,true,true,false,2019-09-02 00:00:00
533,Broadway & W 38 St,6441.05,40.75299641,-73.98721619,71,"KEY,CREDITCARD",46,false,5,1,40,0,true,true,true,false,2019-09-02 00:00:00
3150,E 85 St & York Ave,7146.04,40.77536905,-73.94803392,71,"KEY,CREDITCARD",47,false,5,1,41,0,true,true,true,false,2019-09-02 00:00:00
359,E 47 St & Park Ave,6584.12,40.75510267,-73.97498696,71,"KEY,CREDITCARD",64,false,5,1,58,0,true,true,true,false,2019-09-02 00:00:00
3692,5 St & Market St,4843.01,40.699997484388504,-73.974401280283928,71,"KEY,CREDITCARD",15,false,6,0,9,0,true,true,true,false,2019-09-02 00:00:00
3059,Pulaski St & Marcus Garvey Blvd,4656.03,40.6933982,-73.939877,71,"KEY,CREDITCARD",19,false,6,0,13,0,true,true,true,false,2019-09-02 00:00:00
3568,34 St & 35 Ave,6605.08,40.7569332,-73.9262231,71,"KEY,CREDITCARD",21,false,6,0,15,0,true,true,true,false,2019-09-02 00:00:00
3770,Central Ave & Flushing Ave,4947.04,40.702831,-73.9333,71,"KEY,CREDITCARD",21,false,6,1,14,0,true,true,true,false,2019-09-02 00:00:00
3185,City Hall,JC003,40.7177325,-74.043845,70,"KEY,CREDITCARD",22,false,6,0,16,0,true,true,true,false,2019-09-01 00:00:00
241,DeKalb Ave & S Portland Ave,4546.04,40.68981035,-73.97493121,71,"KEY,CREDITCARD",23,false,6,1,16,0,true,true,true,false,2019-09-02 00:00:00
258,DeKalb Ave & Vanderbilt Ave,4461.04,40.68940747,-73.96885458,71,"KEY,CREDITCARD",23,false,6,1,16,0,true,true,true,false,2019-09-02 00:00:00
3070,McKibbin St & Manhattan Ave,4996.08,40.70510918,-73.94407279,71,"KEY,CREDITCARD",23,false,6,0,16,1,true,true,true,false,2019-09-01 00:00:00
3343,W 107 St & Columbus Ave,7619.05,40.7997568,-73.9621128676,71,"KEY,CREDITCARD",23,false,6,0,17,0,true,true,true,false,2019-09-02 00:00:00
3602,31 Ave & 34 St,6819.15,40.763154,-73.920827,71,"KEY,CREDITCARD",23,false,6,0,17,0,true,true,true,false,2019-09-01 00:00:00
3776,Central Ave & Starr Street,4792.03,40.700003,-73.92834,71,"KEY,CREDITCARD",23,false,6,0,17,0,true,true,true,false,2019-09-02 00:00:00
143,Clinton St & Joralemon St,4605.04,40.69239502,-73.99337909,71,"KEY,CREDITCARD",24,false,6,0,18,0,true,true,true,false,2019-09-02 00:00:00
3358,Garfield Pl & 8 Ave,3978.13,40.6711978,-73.97484126,71,"KEY,CREDITCARD",25,false,6,0,19,0,true,true,true,false,2019-09-02 00:00:00
3415,Prospect Pl & 6 Ave,4166.08,40.6793307,-73.97519523,71,"KEY,CREDITCARD",25,false,6,0,19,0,true,true,true,false,2019-09-02 00:00:00
320,Leonard St & Church St,5359.11,40.717571,-74.005549,71,"KEY,CREDITCARD",27,false,6,0,21,0,true,true,true,false,2019-09-02 00:00:00
399,Lafayette Ave & St James Pl,4494.04,40.68851534,-73.9647628,71,"KEY,CREDITCARD",27,false,6,0,21,0,true,true,true,false,2019-09-02 00:00:00
448,W 37 St & 10 Ave,6611.02,40.75660359,-73.9979009,71,"KEY,CREDITCARD",27,false,6,1,20,0,true,true,true,false,2019-09-02 00:00:00
3582,Lincoln Pl & Classon Ave,3960.01,40.6721683,-73.9609,71,"KEY,CREDITCARD",28,false,6,0,22,0,true,true,true,false,2019-09-02 00:00:00
3069,Lorimer St & Broadway,4965.01,40.70411791,-73.94818595,71,"KEY,CREDITCARD",29,false,6,0,23,0,true,true,true,false,2019-09-02 00:00:00
3792,Columbus Dr at Exchange Pl,JC106,40.71687,-74.03281,70,"KEY,CREDITCARD",29,false,6,1,22,0,true,true,true,false,2019-09-01 00:00:00
3649,W 129 St & Convent Ave,7818.17,40.814394437915816,-73.953247368335724,71,"KEY,CREDITCARD",30,false,6,0,24,0,true,true,true,false,2019-09-02 00:00:00
3545,Broadway & W 122 St,7783.18,40.8120562,-73.9612547,71,"KEY,CREDITCARD",33,false,6,0,27,0,true,true,true,false,2019-09-02 00:00:00
3572,34 Ave & 38 St,6638.01,40.756913,-73.921631,71,"KEY,CREDITCARD",33,false,6,0,27,0,true,true,true,false,2019-09-02 00:00:00
3170,W 84 St & Columbus Ave,7382.04,40.78499979,-73.97283406,71,"KEY,CREDITCARD",35,false,6,2,27,0,true,true,true,false,2019-09-02 00:00:00
3507,Park Ave & E 124 St,7682.01,40.8045555,-73.9396861,71,"KEY,CREDITCARD",36,false,6,0,30,0,true,true,true,false,2019-09-02 00:00:00
3690,Park Pl & Church St,5288.08,40.713341842759071,-74.009355157613754,71,"KEY,CREDITCARD",36,false,6,1,29,0,true,true,true,false,2019-09-02 00:00:00
3284,E 88 St & Park Ave,7293.10,40.781410700190015,-73.95595908164978,71,"KEY,CREDITCARD",38,false,6,1,31,0,true,true,true,false,2019-09-01 00:00:00
3727,Frost St & Meeker Ave,5371.07,40.717661970839941,-73.948800265789032,71,"KEY,CREDITCARD",38,false,6,0,32,0,true,true,true,false,2019-09-02 00:00:00
3151,E 81 St & York Ave,7084.12,40.7728384,-73.94989233,71,"KEY,CREDITCARD",43,false,6,0,37,0,true,true,true,false,2019-09-02 00:00:00
3539,W 116 St & Amsterdam Ave,7692.11,40.8067581,-73.9607082,71,"KEY,CREDITCARD",43,false,6,0,37,0,true,true,true,false,2019-09-02 00:00:00
3167,Amsterdam Ave & W 73 St,7260.09,40.779668090073123,-73.980930447578416,71,"KEY,CREDITCARD",55,false,6,1,33,15,true,true,true,false,2019-09-02 00:00:00
3184,Paulus Hook,JC002,40.7141454,-74.0335519,70,"KEY,CREDITCARD",14,false,7,0,7,0,true,true,true,false,2019-09-01 00:00:00
3225,Baldwin at Montgomery,JC020,40.7236589,-74.0641943,70,"KEY,CREDITCARD",14,false,7,0,7,0,true,true,true,false,2019-09-02 00:00:00
3275,Columbus Drive,JC014,40.718355198232139,-74.038914442062378,70,"KEY,CREDITCARD",14,false,7,0,7,0,true,true,true,false,2019-09-02 00:00:00
3049,Cambridge Pl & Gates Ave,4377.04,40.68488,-73.96304,71,"KEY,CREDITCARD",18,false,7,0,11,0,true,true,true,false,2019-09-02 00:00:00
3210,Pershing Field,JC024,40.742677141,-74.051788633,70,"KEY,CREDITCARD",18,false,7,0,11,0,true,true,true,false,2019-09-02 00:00:00
3043,Lewis Ave & Decatur St,4237.01,40.6814598,-73.934903,71,"KEY,CREDITCARD",19,false,7,1,11,0,true,true,true,false,2019-09-02 00:00:00
3560,28 St & 38 Ave,6538.03,40.754876,-73.934326,71,"KEY,CREDITCARD",19,false,7,0,12,0,true,true,true,false,2019-09-02 00:00:00
3755,DeKalb Ave & Franklin Ave,4528.01,40.690648070829432,-73.957461789250374,71,"KEY,CREDITCARD",19,false,7,0,12,0,true,true,true,false,2019-09-02 00:00:00
3187,Warren St,JC006,40.7211236,-74.03805095,70,"KEY,CREDITCARD",22,false,7,0,14,1,true,true,true,false,2019-09-01 00:00:00
3205,JC Medical Center,JC011,40.716539780991937,-74.0496379137039,70,"KEY,CREDITCARD",22,false,7,0,15,0,true,true,true,false,2019-09-02 00:00:00
216,Columbia Heights & Cranberry St,4829.01,40.70037867,-73.99548059,71,"KEY,CREDITCARD",23,false,7,0,16,0,true,true,true,false,2019-09-02 00:00:00
3256,Pier 40 - Hudson River Park,5696.03,40.7277140777778,-74.011295735836029,71,"KEY,CREDITCARD",23,false,7,0,16,0,true,true,true,false,2019-09-02 00:00:00
3555,28 St & 41 Ave,6462.19,40.751047,-73.93797,71,"KEY,CREDITCARD",23,false,7,0,16,0,true,true,true,false,2019-09-02 00:00:00
3768,Waterbury St & Stagg St,5099.02,40.71019,-73.93734,71,"KEY,CREDITCARD",23,false,7,0,16,0,true,true,true,false,2019-09-01 00:00:00
3388,President St & Henry St,4307.13,40.6828003,-73.99990419,71,"KEY,CREDITCARD",25,false,7,1,17,0,true,true,true,false,2019-09-01 00:00:00
397,Fulton St & Clermont Ave,4386.05,40.68415748,-73.96922273,71,"KEY,CREDITCARD",27,false,7,0,20,0,true,true,true,false,2019-09-02 00:00:00
3745,36 Ave & 31 St,6572.08,40.756512729849547,-73.929574862122521,71,"KEY,CREDITCARD",27,false,7,0,20,0,true,true,true,false,2019-09-02 00:00:00
3081,Graham Ave & Grand St,5178.06,40.711863,-73.944024,71,"KEY,CREDITCARD",29,false,7,1,21,0,true,true,true,false,2019-09-02 00:00:00
3516,31 St & Astoria Blvd,6989.07,40.7699176,-73.9184057,71,"KEY,CREDITCARD",31,false,7,0,24,0,true,true,true,false,2019-09-02 00:00:00
3715,Driggs Ave & N 9 St,5411.08,40.718169694542077,-73.955201357603073,71,"KEY,CREDITCARD",31,false,7,0,24,0,true,true,true,false,2019-09-02 00:00:00
3083,Bushwick Ave & Powers St,5250.05,40.71247661,-73.94100005,71,"KEY,CREDITCARD",32,false,7,0,25,0,true,true,true,false,2019-09-02 00:00:00
319,Fulton St & Broadway,5175.08,40.711066,-74.009447,71,"KEY,CREDITCARD",33,false,7,1,25,0,true,true,true,false,2019-09-02 00:00:00
3630,Frederick Douglass Blvd & W 115 St,7658.13,40.8038654,-73.9559308,71,"KEY,CREDITCARD",33,false,7,0,26,0,true,true,true,false,2019-09-02 00:00:00
3459,E 53 St & 3 Ave,6617.02,40.757632277394428,-73.969305753707886,71,"KEY,CREDITCARD",34,false,7,1,26,0,true,true,true,false,2019-09-02 00:00:00
3375,3 Ave & E 72 St,7028.04,40.7699426,-73.96060712,71,"KEY,CREDITCARD",35,false,7,0,28,0,true,true,true,false,2019-09-01 00:00:00
116,W 17 St & 8 Ave,6148.02,40.74177603,-74.00149746,71,"KEY,CREDITCARD",39,false,7,2,30,0,true,true,true,false,2019-09-02 00:00:00
2017,E 43 St & 2 Ave,6422.08,40.75022392,-73.97121414,71,"KEY,CREDITCARD",39,false,7,0,32,0,true,true,true,false,2019-09-02 00:00:00
3328,W 100 St & Manhattan Ave,7538.14,40.795,-73.9645,71,"KEY,CREDITCARD",39,false,7,2,30,0,true,true,true,false,2019-09-02 00:00:00
3376,E 65 St & 2 Ave,6860.12,40.764718519443392,-73.962220698595047,71,"KEY,CREDITCARD",39,false,7,1,31,0,true,true,true,false,2019-09-02 00:00:00
3552,W 113 St & Broadway,7713.01,40.805973,-73.964928,71,"KEY,CREDITCARD",39,false,7,0,32,0,true,true,true,false,2019-09-02 00:00:00
3623,W 120 St & Claremont Ave,7745.07,40.8109494,-73.9634,71,"KEY,CREDITCARD",39,false,7,0,31,1,true,true,true,false,2019-09-02 00:00:00
3689,W 104 St & Amsterdam Ave,7610.13,40.799041392882984,-73.966494798660278,71,"KEY,CREDITCARD",47,false,7,0,40,0,true,true,true,false,2019-09-01 00:00:00
472,E 32 St & Park Ave,6280.12,40.7457121,-73.98194829,71,"KEY,CREDITCARD",55,false,7,1,47,0,true,true,true,false,2019-09-02 00:00:00
2005,Railroad Ave & Kay Ave,4990.01,40.70531194,-73.97100056,71,"KEY,CREDITCARD",12,false,8,1,3,0,true,true,true,false,2019-09-02 00:00:00
3199,Newport Pkwy,JC008,40.7287448,-74.0321082,70,"KEY,CREDITCARD",14,false,8,1,5,0,true,true,true,false,2019-09-02 00:00:00
3267,Morris Canal,JC072,40.7124188237569,-74.038525521755219,70,"KEY,CREDITCARD",14,false,8,1,5,0,true,true,true,false,2019-09-02 00:00:00
3268,Lafayette Park,JC078,40.71346382669195,-74.062858521938324,70,"KEY,CREDITCARD",14,false,8,0,6,0,true,true,true,false,2019-09-02 00:00:00
3483,Montgomery St,JC099,40.71942,-74.05099,70,"KEY,CREDITCARD",14,false,8,1,4,1,true,true,true,false,2019-09-01 00:00:00
3622,E 128 St & Madison Ave,7735.23,40.80756,-73.939182,71,"KEY,CREDITCARD",15,false,8,0,7,0,true,true,true,false,2019-09-01 00:00:00
3201,Dey St,JC065,40.737711,-74.066921,70,"KEY,CREDITCARD",17,false,8,0,9,0,true,true,true,false,2019-09-01 00:00:00
3196,Riverview Park,JC057,40.7443187,-74.0439909,70,"KEY,CREDITCARD",18,false,8,1,9,0,true,true,true,false,2019-09-02 00:00:00
3638,Washington St,JC098,40.7242941,-74.0354826,70,"KEY,CREDITCARD",18,false,8,0,10,0,true,true,true,false,2019-09-02 00:00:00
3694,Jackson Square,JC063,40.71113,-74.0789,70,"KEY,CREDITCARD",18,false,8,0,10,0,true,true,true,false,2019-09-02 00:00:00
3453,Devoe St & Lorimer St,5259.06,40.713352262228753,-73.9491033554077,71,"KEY,CREDITCARD",19,false,8,2,9,0,true,true,true,false,2019-09-02 00:00:00
3080,S 4 St & Rodney St,5156.05,40.70934,-73.95608,71,"KEY,CREDITCARD",21,false,8,0,13,0,true,true,true,false,2019-09-02 00:00:00
3213,Van Vorst Park,JC035,40.71848892,-74.047726625,70,"KEY,CREDITCARD",21,false,8,0,11,2,true,true,true,false,2019-09-01 00:00:00
3605,31 Ave & Crescent St,6893.10,40.7658346,-73.9265474,71,"KEY,CREDITCARD",21,false,8,0,13,0,true,true,true,false,2019-09-02 00:00:00
3211,Newark Ave,JC032,40.72152515,-74.046304543,70,"KEY,CREDITCARD",22,false,8,3,11,0,true,true,true,false,2019-09-02 00:00:00
3212,Christ Hospital,JC034,40.734785818,-74.050443636,70,"KEY,CREDITCARD",22,false,8,0,14,0,true,true,true,false,2019-09-01 00:00:00
229,Great Jones St,5636.11,40.72743423,-73.99379025,71,"KEY,CREDITCARD",23,false,8,0,15,0,true,true,true,false,2019-09-02 00:00:00
3052,Lewis Ave & Madison St,4425.02,40.686312,-73.935775,71,"KEY,CREDITCARD",23,false,8,1,14,0,true,true,true,false,2019-09-02 00:00:00
3757,Stagg St & Morgan Ave,5170.01,40.710681,-73.93372,71,"KEY,CREDITCARD",23,false,8,0,15,0,true,true,true,false,2019-09-02 00:00:00
3072,Leonard St & Boerum St,5036.06,40.70583339,-73.94644578,71,"KEY,CREDITCARD",24,false,8,0,16,0,true,true,true,false,2019-09-02 00:00:00
3728,Pierrepont St & Monroe Pl,4718.08,40.695356933202248,-73.993440270423889,71,"KEY,CREDITCARD",24,false,8,0,16,0,true,true,true,false,2019-09-02 00:00:00
3360,Amsterdam Ave & W 79 St,7311.02,40.7829391,-73.9786517,71,"KEY,CREDITCARD",25,false,8,0,17,0,true,true,true,false,2019-09-02 00:00:00
3499,2 Ave & E 122 St,7622.12,40.8006721,-73.9349,71,"KEY,CREDITCARD",25,false,8,0,17,0,true,true,true,false,2019-09-02 00:00:00
3157,East End Ave & E 86 St,7113.08,40.77518615,-73.94446054,71,"KEY,CREDITCARD",27,false,8,1,18,0,true,true,true,false,2019-09-01 00:00:00
3308,Kane St & Clinton St,4455.11,40.6861758,-73.99645295,71,"KEY,CREDITCARD",27,false,8,0,19,0,true,true,true,false,2019-09-02 00:00:00
3535,Mt Morris Park W & W 120 St,7685.14,40.804038,-73.945925,71,"KEY,CREDITCARD",27,false,8,1,18,0,true,true,true,false,2019-09-02 00:00:00
3243,E 58 St & 1 Ave (NE Corner),6682.03,40.75892386377695,-73.962262272834778,71,"KEY,CREDITCARD",29,false,8,1,20,0,true,true,true,false,2019-09-01 00:00:00
3537,Carlton Ave & Dean St,4199.12,40.6809741,-73.9710097,71,"KEY,CREDITCARD",29,false,8,1,20,0,true,true,true,false,2019-09-02 00:00:00
366,Clinton Ave & Myrtle Ave,4651.02,40.693261,-73.968896,71,"KEY,CREDITCARD",33,false,8,0,25,0,true,true,true,false,2019-09-02 00:00:00
3363,E 102 St & Park Ave,7488.24,40.7904828,-73.95033068,71,"KEY,CREDITCARD",33,false,8,1,24,0,true,true,true,false,2019-09-02 00:00:00
3156,E 72 St & York Ave,6889.12,40.76663814,-73.95348296,71,"KEY,CREDITCARD",37,false,8,0,29,0,true,true,true,false,2019-09-02 00:00:00
3671,E 81 St & 2 Ave,7121.05,40.774779448957275,-73.954274654388428,71,"KEY,CREDITCARD",37,false,8,1,28,0,true,true,true,false,2019-09-02 00:00:00
3294,E 91 St & Park Ave,7344.05,40.7835016,-73.955327,71,"KEY,CREDITCARD",38,true,8,0,30,0,true,true,true,true,2019-09-02 00:00:00
3336,E 97 St & Madison Ave,7393.09,40.787801,-73.953559,71,"KEY,CREDITCARD",41,false,8,0,33,0,true,true,true,false,2019-09-02 00:00:00
3467,W Broadway & Spring Street,5569.06,40.724946723594158,-74.00165855884552,71,"KEY,CREDITCARD",42,false,8,0,34,0,true,true,false,false,2019-09-02 00:00:00
3119,Vernon Blvd & 50 Ave,6170.02,40.74232744,-73.95411749,71,"KEY,CREDITCARD",45,false,8,1,36,0,true,true,true,false,2019-09-02 00:00:00
3283,W 89 St & Columbus Ave,7432.09,40.7882213,-73.97041561,71,"KEY,CREDITCARD",47,false,8,0,39,0,true,true,true,false,2019-09-02 00:00:00
212,W 16 St & The High Line,6233.05,40.74334935,-74.00681753,71,"KEY,CREDITCARD",60,false,8,0,52,0,true,true,true,false,2019-09-02 00:00:00
450,W 49 St & 8 Ave,6747.06,40.76227205,-73.98788205,71,"KEY,CREDITCARD",67,false,8,1,58,0,true,true,true,false,2019-09-02 00:00:00
519,Pershing Square North,6432.09,40.751873,-73.977706,71,"KEY,CREDITCARD",69,true,8,0,61,0,true,true,true,true,2019-09-02 00:00:00
3272,Jersey & 3rd,JC074,40.723331586464361,-74.045952558517442,70,"KEY,CREDITCARD",14,false,9,0,5,0,true,true,true,false,2019-09-01 00:00:00
3198,Heights Elevator,JC059,40.748715945380226,-74.040443301200867,70,"KEY,CREDITCARD",18,false,9,0,9,0,true,true,true,false,2019-09-02 00:00:00
341,Stanton St & Mangin St,5326.06,40.71782143,-73.97628939,71,"KEY,CREDITCARD",19,false,9,0,10,0,true,true,true,false,2019-09-02 00:00:00
3590,Carroll St & Franklin Ave,3847.04,40.6679411,-73.9588,71,"KEY,CREDITCARD",19,false,9,1,9,0,true,true,true,false,2019-09-01 00:00:00
369,Washington Pl & 6 Ave,5838.09,40.73224119,-74.00026394,71,"KEY,CREDITCARD",21,false,9,3,9,0,true,true,true,false,2019-09-02 00:00:00
3756,White St & Moore St,4987.06,40.704508,-73.9351,71,"KEY,CREDITCARD",21,false,9,0,12,0,true,true,true,false,2019-09-02 00:00:00
245,Myrtle Ave & St Edwards St,4659.02,40.69327018,-73.97703874,71,"KEY,CREDITCARD",23,true,9,0,14,0,true,true,true,true,2019-09-01 00:00:00
343,Clinton Ave & Flushing Ave,4762.04,40.69794,-73.96986848,71,"KEY,CREDITCARD",23,false,9,2,12,0,true,true,true,false,2019-09-02 00:00:00
356,Bialystoker Pl & Delancey St,5335.03,40.71622644,-73.98261206,71,"KEY,CREDITCARD",23,false,9,0,14,0,true,true,true,false,2019-09-02 00:00:00
419,Carlton Ave & Park Ave,4732.04,40.69580705,-73.97355569,71,"KEY,CREDITCARD",23,false,9,0,14,0,true,true,true,false,2019-09-02 00:00:00
3749,Lexington Ave & E 36 St,6313.10,40.747573958954796,-73.9788007736206,71,"KEY,CREDITCARD",23,false,9,0,14,0,true,true,true,false,2019-09-02 00:00:00
3571,Bedford Ave & Bergen St,4066.15,40.676368,-73.952918,71,"KEY,CREDITCARD",24,false,9,3,12,0,true,true,true,false,2019-09-02 00:00:00
3676,Van Brunt St & Van Dyke St,4095.10,40.6758329439129,-74.014726281166077,71,"KEY,CREDITCARD",24,false,9,3,12,0,true,true,true,false,2019-09-01 00:00:00
3766,Sharon St & Olive St,5323.05,40.715353,-73.93856,71,"KEY,CREDITCARD",24,false,9,1,14,0,true,true,true,false,2019-09-02 00:00:00
3303,Butler St & Court St,4339.01,40.6849894,-73.99440329,71,"KEY,CREDITCARD",25,false,9,1,15,0,true,true,true,false,2019-09-01 00:00:00
3207,Oakland Ave,JC022,40.7376037,-74.0524783,70,"KEY,CREDITCARD",26,false,9,2,15,0,true,true,true,false,2019-09-01 00:00:00
3067,Broadway & Whipple St,4883.03,40.7016657,-73.9437303,71,"KEY,CREDITCARD",27,false,9,0,18,0,true,true,true,false,2019-09-01 00:00:00
432,E 7 St & Avenue A,5626.07,40.72621788,-73.98379855,71,"KEY,CREDITCARD",31,false,9,2,20,0,true,true,false,false,2019-09-02 00:00:00
244,Willoughby Ave & Hall St,4611.03,40.69196035,-73.96536851,71,"KEY,CREDITCARD",31,false,9,0,22,0,true,true,true,false,2019-09-02 00:00:00
447,8 Ave & W 52 St,6816.07,40.76370739,-73.9851615,71,"KEY,CREDITCARD",31,false,9,2,20,0,true,true,true,false,2019-09-02 00:00:00
3158,W 63 St & Broadway,7052.01,40.77163851,-73.98261428,71,"KEY,CREDITCARD",31,false,9,2,20,0,true,true,true,false,2019-09-02 00:00:00
3242,Schermerhorn St & Court St,4565.04,40.691029256779679,-73.991833627223969,71,"KEY,CREDITCARD",39,false,9,0,30,0,true,true,true,false,2019-09-02 00:00:00
3372,E 74 St & 1 Ave,6953.08,40.7689738,-73.95482273,71,"KEY,CREDITCARD",39,false,9,0,30,0,true,true,true,false,2019-09-02 00:00:00
3686,Gansevoort St & Hudson St,6072.14,40.739448201304036,-74.005070328712463,71,"KEY,CREDITCARD",39,false,9,0,30,0,true,true,true,false,2019-09-02 00:00:00
3068,Humboldt St & Varet St,4956.02,40.7031724,-73.940636,71,"KEY,CREDITCARD",42,false,9,0,33,0,true,true,true,false,2019-09-02 00:00:00
3295,Central Park W & W 96 St,7499.05,40.79127,-73.964839,71,"KEY,CREDITCARD",59,true,9,1,49,0,true,true,true,true,2019-09-02 00:00:00
3687,E 33 St & 1 Ave,6197.08,40.74322681432173,-73.974497839808464,71,"KEY,CREDITCARD",59,false,9,0,50,0,true,true,true,false,2019-09-02 00:00:00
3679,Bergen Ave,JC095,40.722103786686034,-74.071455001831055,70,"KEY,CREDITCARD",14,false,10,0,4,0,true,true,true,false,2019-09-01 00:00:00
3559,21 St & 38 Ave,6656.05,40.7576314,-73.9391224,71,"KEY,CREDITCARD",19,false,10,2,7,0,true,true,true,false,2019-09-01 00:00:00
3661,Montgomery St & Franklin Ave,3776.05,40.666439306870814,-73.9605563879013,71,"KEY,CREDITCARD",19,false,10,0,9,0,true,true,true,false,2019-09-02 00:00:00
3311,Columbia St & Kane St,4422.05,40.68763155,-74.0016256,71,"KEY,CREDITCARD",21,false,10,1,10,0,true,true,true,false,2019-09-01 00:00:00
302,Avenue D & E 3 St,5436.09,40.72082834,-73.97793172,71,"KEY,CREDITCARD",23,false,10,1,12,0,true,true,true,false,2019-09-02 00:00:00
3310,14 St & 7 Ave,3731.11,40.663779,-73.98396846,71,"KEY,CREDITCARD",24,false,10,2,12,0,true,true,true,false,2019-09-02 00:00:00
3085,Roebling St & N 4 St,5267.09,40.71469,-73.95739,71,"KEY,CREDITCARD",25,false,10,3,12,0,true,true,true,false,2019-09-02 00:00:00
3321,Clinton St & Union St,4266.03,40.6831164,-73.99785267,71,"KEY,CREDITCARD",25,false,10,0,15,0,true,true,true,false,2019-09-02 00:00:00
3095,Graham Ave & Herbert St,5403.05,40.71929301,-73.94500379,71,"KEY,CREDITCARD",26,false,10,0,16,0,true,true,true,false,2019-09-02 00:00:00
3124,46 Ave & 5 St,6286.02,40.74731,-73.95451,71,"KEY,CREDITCARD",27,false,10,1,16,0,true,true,true,false,2019-09-02 00:00:00
3674,Jay St & York St,4895.09,40.701403172577244,-73.986726701259613,71,"KEY,CREDITCARD",27,false,10,2,15,0,true,true,false,false,2019-09-02 00:00:00
3771,McKibbin St & Bogart St,5059.02,40.706237,-73.933871,71,"KEY,CREDITCARD",30,false,10,1,19,0,true,true,true,false,2019-09-02 00:00:00
3675,3 Ave & E 95 St,7365.15,40.784596798848916,-73.949685394763947,71,"KEY,CREDITCARD",31,false,10,0,21,0,true,true,true,false,2019-09-01 00:00:00
325,E 19 St & 3 Ave,5938.01,40.73624527,-73.98473765,71,"KEY,CREDITCARD",35,false,10,0,25,0,true,true,true,false,2019-09-02 00:00:00
518,E 39 St & 2 Ave,6345.01,40.74780373,-73.9734419,71,"KEY,CREDITCARD",39,false,10,1,28,0,true,true,true,false,2019-09-02 00:00:00
3437,Riverside Dr & W 91 St,7524.16,40.793134809866629,-73.977003693580627,71,"KEY,CREDITCARD",39,false,10,1,28,0,true,true,true,false,2019-09-02 00:00:00
3139,E 72 St & Park Ave,6998.08,40.771182875406581,-73.964094221591949,71,"KEY,CREDITCARD",43,false,10,0,33,0,true,true,true,false,2019-09-01 00:00:00
3734,E 58 St &  1 Ave (NW Corner),6723.10,40.759125,-73.962658,71,"KEY,CREDITCARD",50,false,10,0,40,0,true,true,true,false,2019-09-02 00:00:00
442,W 27 St & 7 Ave,6247.06,40.746647,-73.993915,71,"KEY,CREDITCARD",51,false,10,0,41,0,true,true,true,false,2019-09-02 00:00:00
3270,Jersey & 6th St,JC027,40.725289107811321,-74.045571684837341,70,"KEY,CREDITCARD",14,false,11,1,2,0,true,true,true,false,2019-09-02 00:00:00
3277,Communipaw & Berry Lane,JC084,40.714358368704268,-74.066610932350159,70,"KEY,CREDITCARD",14,false,11,0,3,0,true,true,true,false,2019-09-01 00:00:00
3280,Astor Place,JC077,40.719282200707021,-74.071261882781982,70,"KEY,CREDITCARD",14,false,11,0,3,0,true,true,true,false,2019-09-01 00:00:00
3046,Marcus Garvey Blvd & Macon St,4278.03,40.682601,-73.938037,71,"KEY,CREDITCARD",19,false,11,1,7,0,true,true,true,false,2019-09-02 00:00:00
3066,Tompkins Ave & Hopkins St,4850.04,40.69957608,-73.94708417,71,"KEY,CREDITCARD",19,false,11,0,8,0,true,true,true,false,2019-09-02 00:00:00
3241,Monroe St & Tompkins Ave,4434.06,40.686203,-73.944694,71,"KEY,CREDITCARD",19,false,11,1,7,0,true,true,true,false,2019-09-02 00:00:00
3691,28 Ave & 44 St,6879.04,40.76408932350688,-73.910651206970215,71,"KEY,CREDITCARD",19,false,11,0,8,0,true,true,true,false,2019-09-02 00:00:00
3773,Knickerbocker Ave & Thames St,5018.06,40.70539,-73.92976,71,"KEY,CREDITCARD",20,false,11,1,8,0,true,true,true,false,2019-09-02 00:00:00
3209,Brunswick St,JC023,40.7241765,-74.0506564,70,"KEY,CREDITCARD",22,false,11,0,11,0,true,true,true,false,2019-09-02 00:00:00
3214,Essex Light Rail,JC038,40.7127742,-74.0364857,70,"KEY,CREDITCARD",22,false,11,1,10,0,true,true,true,false,2019-09-01 00:00:00
418,Front St & Gold St,4927.04,40.70224,-73.982578,71,"KEY,CREDITCARD",23,false,11,1,11,0,true,true,true,false,2019-09-02 00:00:00
3293,W 92 St & Broadway,7502.01,40.7921,-73.9739,71,"KEY,CREDITCARD",24,false,11,0,13,0,true,true,true,false,2019-09-02 00:00:00
3276,Marin Light Rail,JC013,40.714584035358932,-74.042817056179047,70,"KEY,CREDITCARD",26,false,11,1,14,0,true,true,true,false,2019-09-02 00:00:00
3365,3 St & 7 Ave,3905.15,40.6703837,-73.97839676,71,"KEY,CREDITCARD",27,false,11,0,16,0,true,true,true,false,2019-09-02 00:00:00
3610,Vernon Blvd & 30 Rd,7003.03,40.770845,-73.934171,71,"KEY,CREDITCARD",27,true,11,0,16,0,true,true,true,true,2019-09-02 00:00:00
385,E 55 St & 2 Ave,6650.07,40.75797322,-73.96603308,71,"KEY,CREDITCARD",29,false,11,0,18,0,true,true,true,false,2019-09-02 00:00:00
174,E 25 St & 1 Ave,6004.07,40.7381765,-73.97738662,71,"KEY,CREDITCARD",30,false,11,0,19,0,true,true,true,false,2019-09-02 00:00:00
224,Spruce St & Nassau St,5137.10,40.71146364,-74.00552427,71,"KEY,CREDITCARD",31,true,11,0,20,0,true,true,true,true,2019-09-02 00:00:00
223,W 13 St & 7 Ave,6030.04,40.73781509,-73.99994661,71,"KEY,CREDITCARD",33,false,11,1,21,0,true,true,true,false,2019-09-02 00:00:00
2022,E 60 St & York Ave,6682.08,40.759107,-73.959223,71,"KEY,CREDITCARD",33,false,11,1,21,0,true,true,true,false,2019-09-02 00:00:00
493,W 45 St & 6 Ave,6593.13,40.7568001,-73.98291153,71,"KEY,CREDITCARD",34,false,11,1,22,0,true,true,true,false,2019-09-02 00:00:00
3331,Riverside Dr & W 104 St,7623.13,40.8013434,-73.9711457439,71,"KEY,CREDITCARD",39,true,11,1,27,0,true,true,true,true,2019-09-02 00:00:00
496,E 16 St & 5 Ave,6022.04,40.73726186,-73.99238967,71,"KEY,CREDITCARD",47,false,11,1,35,0,true,true,true,false,2019-09-02 00:00:00
3412,Pacific St & Nevins St,4362.04,40.6853761,-73.98302136,71,"KEY,CREDITCARD",18,false,12,0,6,0,true,true,true,false,2019-09-01 00:00:00
3449,Eckford St & Engert Ave,5512.05,40.721462562298164,-73.948009014129639,71,"KEY,CREDITCARD",18,false,12,0,6,0,true,true,true,false,2019-09-02 00:00:00
3255,8 Ave & W 31 St,6450.05,40.7505853470215,-73.9946848154068,71,"KEY,CREDITCARD",19,false,12,0,7,0,true,true,false,false,2019-09-02 00:00:00
119,Park Ave & St Edwards St,4700.06,40.69608941,-73.97803415,71,"KEY,CREDITCARD",19,false,12,0,7,0,true,true,true,false,2019-09-02 00:00:00
3575,Crescent St & 34 Ave,6759.15,40.76108,-73.930562,71,"KEY,CREDITCARD",19,false,12,0,7,0,true,true,true,false,2019-09-01 00:00:00
276,Duane St & Greenwich St,5400.08,40.71748752,-74.0104554,71,"KEY,CREDITCARD",25,false,12,0,13,0,true,true,true,false,2019-09-02 00:00:00
251,Mott St & Prince St,5561.04,40.72317958,-73.99480012,71,"KEY,CREDITCARD",27,false,12,0,15,0,true,true,true,false,2019-09-02 00:00:00
335,Washington Pl & Broadway,5755.01,40.72903917,-73.99404649,71,"KEY,CREDITCARD",27,false,12,0,15,0,true,true,true,false,2019-09-02 00:00:00
3544,Underhill Ave & Pacific St,4231.04,40.6804836,-73.9646795,71,"KEY,CREDITCARD",27,false,12,0,15,0,true,true,true,false,2019-09-02 00:00:00
315,South St & Gouverneur Ln,4953.04,40.70355377,-74.00670227,71,"KEY,CREDITCARD",29,true,12,1,16,0,true,true,true,true,2019-09-02 00:00:00
540,Lexington Ave & E 29 St,6164.09,40.743115553764859,-73.982153534889221,71,"KEY,CREDITCARD",30,false,12,1,17,0,true,true,true,false,2019-09-02 00:00:00
239,Willoughby St & Fleet St,4628.05,40.69196566,-73.9813018,71,"KEY,CREDITCARD",31,false,12,0,19,0,true,true,true,false,2019-09-02 00:00:00
3077,Stagg St & Union Ave,5117.05,40.70877084,-73.95095259,71,"KEY,CREDITCARD",33,false,12,3,18,0,true,true,true,false,2019-09-02 00:00:00
394,E 9 St & Avenue C,5616.01,40.72521311,-73.97768752,71,"KEY,CREDITCARD",34,false,12,0,22,0,true,true,true,false,2019-09-02 00:00:00
3463,E 16 St & Irving Pl,5938.11,40.735367055605394,-73.987973928451538,71,"KEY,CREDITCARD",37,false,12,2,23,0,true,true,true,false,2019-09-02 00:00:00
3160,Central Park West & W 76 St,7253.04,40.77896784,-73.97374737,71,"KEY,CREDITCARD",39,true,12,0,27,0,true,true,true,true,2019-09-02 00:00:00
3724,7 Ave & Central Park South,6912.01,40.7667405590595,-73.9790689945221,71,"KEY,CREDITCARD",39,false,12,4,23,0,true,true,true,false,2019-09-02 00:00:00
3440,Fulton St & Adams St,4637.06,40.692418292578466,-73.989494740962982,71,"KEY,CREDITCARD",43,false,12,0,31,0,true,true,true,false,2019-09-02 00:00:00
164,E 47 St & 2 Ave,6498.10,40.75323098,-73.97032517,71,"KEY,CREDITCARD",47,false,12,1,34,0,true,true,true,false,2019-09-02 00:00:00
377,6 Ave & Canal St,5500.07,40.72243797,-74.00566443,71,"KEY,CREDITCARD",47,false,12,1,34,0,true,true,true,false,2019-09-02 00:00:00
3287,W 87 St & West End Ave,7484.05,40.789622,-73.97757,71,"KEY,CREDITCARD",47,false,12,0,35,0,true,true,true,false,2019-09-02 00:00:00
293,Lafayette St & E 8 St,5788.13,40.730206605299543,-73.991026282310486,71,"KEY,CREDITCARD",55,false,12,3,40,0,true,true,true,false,2019-09-02 00:00:00
3140,1 Ave & E 78 St,7020.09,40.77140426,-73.9535166,71,"KEY,CREDITCARD",55,false,12,1,41,1,true,true,true,false,2019-09-02 00:00:00
474,5 Ave & E 29 St,6248.06,40.7451677,-73.98683077,71,"KEY,CREDITCARD",56,false,12,0,44,0,true,true,true,false,2019-09-02 00:00:00
362,Broadway & W 37 St,6441.02,40.75172632,-73.98753523,71,"KEY,CREDITCARD",57,false,12,0,45,0,true,true,true,false,2019-09-02 00:00:00
237,E 11 St & 2 Ave,5746.04,40.73047309,-73.98672378,71,"KEY,CREDITCARD",19,false,13,0,6,0,true,true,true,false,2019-09-02 00:00:00
289,Monroe St & Classon Ave,4336.01,40.6845683,-73.95881081,71,"KEY,CREDITCARD",19,false,13,0,6,0,true,true,true,false,2019-09-02 00:00:00
373,Willoughby Ave & Walworth St,4634.02,40.69331716,-73.95381995,71,"KEY,CREDITCARD",19,false,13,0,6,0,true,true,true,false,2019-09-02 00:00:00
3515,24 Ave & 26 St,7152.10,40.774591,-73.918544,71,"KEY,CREDITCARD",19,false,13,0,6,0,true,true,true,false,2019-09-02 00:00:00
3530,Crescent St & Ditmars Blvd,7233.05,40.7787185,-73.9145645,71,"KEY,CREDITCARD",19,false,13,0,6,0,true,true,true,false,2019-09-01 00:00:00
3565,36 Ave & 10 St,6737.03,40.7614376,-73.9411265,71,"KEY,CREDITCARD",19,false,13,1,5,0,true,true,true,false,2019-09-02 00:00:00
3704,47 Ave & Skillman Ave,6237.01,40.7437524099784,-73.941764831542969,71,"KEY,CREDITCARD",19,false,13,0,6,0,true,true,true,false,2019-09-01 00:00:00
3430,Richardson St & N Henry St,5433.03,40.719078911795641,-73.94223690032959,71,"KEY,CREDITCARD",25,false,13,0,12,0,true,true,true,false,2019-09-02 00:00:00
280,E 10 St & 5 Ave,5872.08,40.73331967,-73.99510132,71,"KEY,CREDITCARD",31,false,13,0,18,0,true,true,true,false,2019-09-02 00:00:00
516,E 47 St & 1 Ave,6498.09,40.75206862,-73.96784384,71,"KEY,CREDITCARD",31,false,13,0,18,0,true,true,true,false,2019-09-02 00:00:00
3307,West End Ave & W 94 St,7524.09,40.7941654,-73.974124,71,"KEY,CREDITCARD",31,false,13,0,18,0,true,true,true,false,2019-09-02 00:00:00
3508,St Nicholas Ave & Manhattan Ave,7723.01,40.809725,-73.953149,71,"KEY,CREDITCARD",31,false,13,0,18,0,true,true,true,false,2019-09-02 00:00:00
466,W 25 St & 6 Ave,6215.04,40.74395411,-73.99144871,71,"KEY,CREDITCARD",35,false,13,0,13,9,true,true,true,false,2019-09-02 00:00:00
532,S 5 Pl & S 5 St,5125.03,40.710451,-73.960876,71,"KEY,CREDITCARD",43,true,13,1,29,0,true,true,true,true,2019-09-02 00:00:00
546,E 30 St & Park Ave S,6206.08,40.74444921,-73.98303529,71,"KEY,CREDITCARD",45,false,13,1,31,0,true,true,true,false,2019-09-02 00:00:00
522,E 51 St & Lexington Ave,6659.01,40.75714758,-73.97207836,71,"KEY,CREDITCARD",51,false,13,3,35,0,true,true,true,false,2019-09-02 00:00:00
3641,Broadway & W 25 St,6173.08,40.742868773121117,-73.98918628692627,71,"KEY,CREDITCARD",54,false,13,1,40,0,true,true,true,false,2019-09-02 00:00:00
3798,W 40 St & 5 Ave,6474.02,40.752269,-73.982079,71,"KEY,CREDITCARD",55,false,13,0,42,0,true,true,true,false,2019-09-02 00:00:00
3323,W 106 St & Central Park West,7606.01,40.7981856,-73.9605909006,71,"KEY,CREDITCARD",59,true,13,1,45,0,true,true,true,true,2019-09-02 00:00:00
3191,Union St,JC051,40.7182113,-74.0836394,70,"KEY,CREDITCARD",18,false,14,0,4,0,true,true,true,false,2019-09-01 00:00:00
144,Nassau St & Navy St,4812.02,40.69839895,-73.98068914,71,"KEY,CREDITCARD",19,false,14,1,4,0,true,true,true,false,2019-09-02 00:00:00
3726,Center Blvd & 51 Ave,6179.07,40.743366080270214,-73.959606885910034,71,"KEY,CREDITCARD",20,false,14,0,6,0,true,true,true,false,2019-09-02 00:00:00
3106,Driggs Ave & N Henry St,5542.04,40.72325,-73.94308,71,"KEY,CREDITCARD",22,false,14,0,8,0,true,true,true,false,2019-09-02 00:00:00
508,W 46 St & 11 Ave,6795.01,40.76341379,-73.99667444,71,"KEY,CREDITCARD",25,false,14,1,10,0,true,true,true,false,2019-09-02 00:00:00
297,E 15 St & 3 Ave,5863.07,40.734232,-73.986923,71,"KEY,CREDITCARD",27,false,14,0,13,0,true,true,true,false,2019-09-02 00:00:00
3101,N 12 St & Bedford Ave,5450.04,40.72079821,-73.95484712,71,"KEY,CREDITCARD",27,false,14,0,13,0,true,true,true,false,2019-09-02 00:00:00
480,W 53 St & 10 Ave,6890.01,40.76669671,-73.99061728,71,"KEY,CREDITCARD",29,false,14,0,15,0,true,true,true,false,2019-09-02 00:00:00
3313,6 Ave & 12 St,3803.05,40.6663181,-73.9854617,71,"KEY,CREDITCARD",29,false,14,0,15,0,true,true,true,false,2019-09-02 00:00:00
502,Henry St & Grand St,5294.04,40.714215,-73.981346,71,"KEY,CREDITCARD",30,false,14,0,16,0,true,true,true,false,2019-09-02 00:00:00
3611,Vernon Blvd & 47 Rd,6212.08,40.7449067,-73.9534573,71,"KEY,CREDITCARD",31,false,14,0,17,0,true,true,true,false,2019-09-01 00:00:00
393,E 5 St & Avenue C,5545.04,40.72299208,-73.97995466,71,"KEY,CREDITCARD",37,false,14,0,23,0,true,true,true,false,2019-09-02 00:00:00
526,E 33 St & 5 Ave,6322.01,40.74765947,-73.98490707,71,"KEY,CREDITCARD",40,false,14,1,25,0,true,true,true,false,2019-09-02 00:00:00
491,E 24 St & Park Ave S,6131.10,40.74096374,-73.98602213,71,"KEY,CREDITCARD",51,false,14,0,37,0,true,true,true,false,2019-09-02 00:00:00
3177,W 84 St & Broadway,7409.08,40.7867947,-73.977112,71,"KEY,CREDITCARD",63,false,14,0,49,0,true,true,true,false,2019-09-02 00:00:00
400,Pitt St & Stanton St,5406.04,40.71926081,-73.98178024,71,"KEY,CREDITCARD",15,false,15,0,0,0,true,true,true,false,2019-09-02 00:00:00
3612,30 Ave & 21 St,6996.01,40.7703743,-73.9286078,71,"KEY,CREDITCARD",15,false,15,0,0,0,true,true,true,false,2019-09-02 00:00:00
3042,Fulton St & Utica Ave,4228.02,40.6794268,-73.9298911,71,"KEY,CREDITCARD",19,false,15,0,4,0,true,true,true,false,2019-09-02 00:00:00
3522,37 St & 24 Ave,6981.16,40.7701477,-73.9120938,71,"KEY,CREDITCARD",19,false,15,0,4,0,true,true,true,false,2019-09-01 00:00:00
3607,31 Ave & 14 St,6966.04,40.7682,-73.9322662,71,"KEY,CREDITCARD",19,false,15,0,4,0,true,true,true,false,2019-09-02 00:00:00
3525,23 Ave & 27 St,7178.02,40.776165,-73.9153175,71,"KEY,CREDITCARD",21,false,15,0,6,0,true,true,true,false,2019-09-02 00:00:00
3769,White St & Johnson Ave,5099.03,40.707174,-73.93581,71,"KEY,CREDITCARD",23,false,15,1,7,0,true,true,true,false,2019-09-01 00:00:00
545,E 23 St & 1 Ave,5929.01,40.736502,-73.97809472,71,"KEY,CREDITCARD",27,false,15,2,10,0,true,true,true,false,2019-09-02 00:00:00
3329,Degraw St & Smith St,4298.05,40.6829151,-73.99318208,71,"KEY,CREDITCARD",27,false,15,0,12,0,true,true,true,false,2019-09-02 00:00:00
513,W 56 St & 10 Ave,6955.01,40.768254,-73.988639,71,"KEY,CREDITCARD",29,false,15,0,14,0,true,true,true,false,2019-09-02 00:00:00
536,1 Ave & E 30 St,6079.03,40.74144387,-73.97536082,71,"KEY,CREDITCARD",29,false,15,0,14,0,true,true,true,false,2019-09-02 00:00:00
2000,Front St & Washington St,4936.01,40.70255088,-73.98940236,71,"KEY,CREDITCARD",30,false,15,2,13,0,true,true,true,false,2019-09-02 00:00:00
3639,Harborside,JC104,40.7192517,-74.034234,70,"KEY,CREDITCARD",30,false,15,0,15,0,true,true,true,false,2019-09-02 00:00:00
471,Grand St & Havemeyer St,5267.08,40.71286844,-73.95698119,71,"KEY,CREDITCARD",31,false,15,1,15,0,true,true,true,false,2019-09-02 00:00:00
479,9 Ave & W 45 St,6717.06,40.76019252,-73.9912551,71,"KEY,CREDITCARD",31,false,15,5,11,0,true,true,true,false,2019-09-02 00:00:00
3236,W 42 St & Dyer Ave,6644.07,40.758984813996342,-73.993799686431885,71,"KEY,CREDITCARD",33,false,15,2,16,0,true,true,true,false,2019-09-02 00:00:00
3505,Lexington Ave & E 127 St,7662.13,40.805726,-73.936322,71,"KEY,CREDITCARD",33,false,15,0,18,0,true,true,true,false,2019-09-02 00:00:00
3367,5 Ave & E 103 St,7511.19,40.7922553,-73.95249933,71,"KEY,CREDITCARD",39,true,15,1,23,0,true,true,true,true,2019-09-02 00:00:00
3547,Broadway & Moylan Pl,7823.03,40.8143256,-73.9590255,71,"KEY,CREDITCARD",41,false,15,0,26,0,true,true,true,false,2019-09-02 00:00:00
284,Greenwich Ave & 8 Ave,6072.06,40.7390169121,-74.0026376103,71,"KEY,CREDITCARD",43,false,15,2,26,0,true,true,true,false,2019-09-02 00:00:00
3285,W 87 St & Amsterdam Ave,7458.03,40.78839,-73.9747,71,"KEY,CREDITCARD",43,false,15,0,28,0,true,true,true,false,2019-09-02 00:00:00
3292,5 Ave & E 93 St,7372.10,40.7857851,-73.957481,71,"KEY,CREDITCARD",43,true,15,2,26,0,true,true,true,true,2019-09-02 00:00:00
476,E 31 St & 3 Ave,6239.08,40.74394314,-73.97966069,71,"KEY,CREDITCARD",47,false,15,0,32,0,true,true,true,false,2019-09-02 00:00:00
3746,6 Ave & Broome St,5610.09,40.724308321602166,-74.004730358719826,71,"KEY,CREDITCARD",48,false,15,1,32,0,true,true,true,false,2019-09-02 00:00:00
461,E 20 St & 2 Ave,5971.08,40.73587678,-73.98205027,71,"KEY,CREDITCARD",56,false,15,1,40,0,true,true,true,false,2019-09-02 00:00:00
470,W 20 St & 8 Ave,6224.05,40.74345335,-74.00004031,71,"KEY,CREDITCARD",72,false,15,1,56,0,true,true,true,false,2019-09-02 00:00:00
3344,Pioneer St & Van Brunt St,4169.04,40.679043,-74.011169,71,"KEY,CREDITCARD",19,false,16,0,3,0,true,true,true,false,2019-09-02 00:00:00
3348,Coffey St & Conover St,4137.10,40.677236,-74.015665,71,"KEY,CREDITCARD",19,false,16,1,2,0,true,true,true,false,2019-09-02 00:00:00
3392,Commerce St & Van Brunt St,4243.01,40.6812117,-74.00860912,71,"KEY,CREDITCARD",19,false,16,1,2,0,true,true,true,false,2019-09-01 00:00:00
3567,11 St & 35 Ave,6768.04,40.7627442,-73.9391141,71,"KEY,CREDITCARD",19,false,16,0,3,0,true,true,true,false,2019-09-02 00:00:00
3601,Sterling St & Bedford Ave,3665.06,40.6627059,-73.9569115,71,"KEY,CREDITCARD",19,false,16,0,3,0,true,true,true,false,2019-09-02 00:00:00
3759,Irving Ave & Jefferson St,5051.02,40.70538,-73.92535,71,"KEY,CREDITCARD",19,false,16,0,3,0,true,true,true,false,2019-09-02 00:00:00
3528,Steinway St & 23 Ave,7009.02,40.7713937,-73.9077436,71,"KEY,CREDITCARD",21,false,16,0,5,0,true,true,true,false,2019-09-01 00:00:00
3497,Pleasant Ave & E 116 St,7450.05,40.7949879,-73.9333349,71,"KEY,CREDITCARD",23,false,16,1,6,0,true,true,true,false,2019-09-02 00:00:00
434,9 Ave & W 18 St,6190.08,40.74317449,-74.00366443,71,"KEY,CREDITCARD",27,false,16,0,11,0,true,true,true,false,2019-09-02 00:00:00
3093,N 6 St & Bedford Ave,5379.10,40.71745169,-73.95850939,71,"KEY,CREDITCARD",28,false,16,0,12,0,true,true,true,false,2019-09-02 00:00:00
426,West St & Chambers St,5329.03,40.71754834,-74.01322069,71,"KEY,CREDITCARD",29,true,16,1,12,0,true,true,false,true,2019-09-02 00:00:00
3382,Carroll St & Smith St,4225.14,40.680611,-73.99475825,71,"KEY,CREDITCARD",31,false,16,1,14,0,true,true,true,false,2019-09-01 00:00:00
3314,W 95 St & Broadway,7541.01,40.7937704,-73.971888,71,"KEY,CREDITCARD",32,false,16,1,15,0,true,true,true,false,2019-09-02 00:00:00
3791,Hoboken Ave at Monmouth St,JC105,40.735208380453571,-74.046963751316071,70,"KEY,CREDITCARD",32,false,16,0,16,0,true,true,true,false,2019-09-01 00:00:00
3076,Scholes St & Manhattan Ave,5108.01,40.70870368,-73.9448625,71,"KEY,CREDITCARD",36,false,16,2,18,0,true,true,true,false,2019-09-02 00:00:00
505,6 Ave & W 33 St,6364.07,40.74901271,-73.98848395,71,"KEY,CREDITCARD",39,false,16,0,23,0,true,true,true,false,2019-09-02 00:00:00
3350,W 100 St & Broadway,7580.01,40.7973721,-73.97041192,71,"KEY,CREDITCARD",39,false,16,0,23,0,true,true,true,false,2019-09-02 00:00:00
3141,1 Ave & E 68 St,6822.09,40.76500525,-73.95818491,71,"KEY,CREDITCARD",59,false,16,1,42,0,true,true,true,false,2019-09-02 00:00:00
3193,Lincoln Park,JC053,40.7246050998869,-74.078405946493149,70,"KEY,CREDITCARD",18,false,17,0,1,0,true,true,true,false,2019-09-01 00:00:00
3330,Henry St & Bay St,3972.08,40.6725058,-74.00494695,71,"KEY,CREDITCARD",19,false,17,1,1,0,true,true,true,false,2019-09-02 00:00:00
3395,Henry St & W 9 St,4086.06,40.6763744,-74.00324957,71,"KEY,CREDITCARD",19,false,17,0,2,0,true,true,true,false,2019-09-02 00:00:00
3420,Douglass St & 3 Ave,4217.02,40.6802133,-73.98432695,71,"KEY,CREDITCARD",21,false,17,3,1,0,true,true,true,false,2019-09-01 00:00:00
157,Henry St & Atlantic Ave,4531.05,40.69089272,-73.99612349,71,"KEY,CREDITCARD",23,false,17,0,6,0,true,true,true,false,2019-09-02 00:00:00
3524,19 St & 24 Ave,7186.15,40.7774552,-73.9225403,71,"KEY,CREDITCARD",23,false,17,0,6,0,true,true,true,false,2019-09-01 00:00:00
3390,E 109 St & 3 Ave,7504.12,40.79329668,-73.9432083,71,"KEY,CREDITCARD",24,false,17,0,7,0,true,true,true,false,2019-09-02 00:00:00
3386,1 Pl & Clinton St,4193.14,40.6809591,-73.99905709,71,"KEY,CREDITCARD",27,false,17,0,10,0,true,true,true,false,2019-09-02 00:00:00
3527,5 Ave & E 126 St,7701.19,40.80698,-73.941747,71,"KEY,CREDITCARD",27,false,17,0,10,0,true,true,true,false,2019-09-01 00:00:00
3693,N 11 St & Kent Ave,5489.04,40.722481886382191,-73.959219306707382,71,"KEY,CREDITCARD",27,false,17,1,9,0,true,true,true,false,2019-09-02 00:00:00
3346,Berkeley Pl & 7 Ave,4051.01,40.675146838709786,-73.975232094526291,71,"KEY,CREDITCARD",29,false,17,0,12,0,true,true,true,false,2019-09-02 00:00:00
3506,Lexington Ave & E 120 St,7652.04,40.8013066,-73.9398167,71,"KEY,CREDITCARD",29,false,17,0,12,0,true,true,true,false,2019-09-02 00:00:00
312,Allen St & Stanton St,5484.09,40.722055,-73.989111,71,"KEY,CREDITCARD",31,false,17,2,12,0,true,true,true,false,2019-09-02 00:00:00
3289,W 90 St & Amsterdam Ave,7432.04,40.790179480950812,-73.972889184951782,71,"KEY,CREDITCARD",32,false,17,0,15,0,true,true,true,false,2019-09-02 00:00:00
332,Cherry St,5181.04,40.71219906,-73.97948148,71,"KEY,CREDITCARD",36,false,17,1,18,0,true,true,true,false,2019-09-02 00:00:00
3534,Frederick Douglass Blvd & W 117 St,7688.12,40.805159,-73.954692,71,"KEY,CREDITCARD",39,false,17,1,21,0,true,true,true,false,2019-09-02 00:00:00
3161,W 76 St & Columbus Ave,7281.09,40.7801839724239,-73.977285325527191,71,"KEY,CREDITCARD",59,false,17,3,39,0,true,true,true,false,2019-09-02 00:00:00
3263,Cooper Square & Astor Pl,5712.03,40.729514962249489,-73.990752696990967,71,"KEY,CREDITCARD",59,false,17,1,41,0,true,true,true,false,2019-09-02 00:00:00
278,Concord St & Bridge St,4781.03,40.69766564,-73.98476437,71,"KEY,CREDITCARD",19,false,18,0,1,0,true,true,true,false,2019-09-02 00:00:00
3332,Degraw St & Hoyt St,4258.07,40.681990442707026,-73.990790247917175,71,"KEY,CREDITCARD",19,false,18,1,0,0,true,true,true,false,2019-09-01 00:00:00
3586,34 Ave & 13 St,6836.07,40.7638753,-73.9364848,71,"KEY,CREDITCARD",19,false,18,0,1,0,true,true,true,false,2019-09-01 00:00:00
3589,Broadway & 12 St,6901.01,40.7668,-73.9347774,71,"KEY,CREDITCARD",19,false,18,0,1,0,true,true,true,false,2019-09-01 00:00:00
3758,George St & Wilson Ave,4906.07,40.702997,-73.92997,71,"KEY,CREDITCARD",19,false,18,1,0,0,true,true,true,false,2019-09-02 00:00:00
3795,10 St & 2 Ave,3922.02,40.671907,-73.993612,71,"KEY,CREDITCARD",19,false,18,0,1,0,true,true,true,false,2019-09-01 00:00:00
3319,14 St & 5 Ave,3771.06,40.666287,-73.98895053,71,"KEY,CREDITCARD",21,false,18,1,2,0,true,true,true,false,2019-09-01 00:00:00
3591,21 St & 31 Dr,6865.03,40.7659,-73.930819,71,"KEY,CREDITCARD",21,false,18,2,1,0,true,true,true,false,2019-09-02 00:00:00
3764,Bushwick Ave & McKibbin St,5027.02,40.705517,-73.93936,71,"KEY,CREDITCARD",21,false,18,0,3,0,true,true,true,false,2019-09-02 00:00:00
242,Carlton Ave & Flushing Ave,4732.08,40.697787,-73.973736,71,"KEY,CREDITCARD",23,false,18,0,5,0,true,true,true,false,2019-09-02 00:00:00
354,Emerson Pl & Myrtle Ave,4683.02,40.69363137,-73.96223558,71,"KEY,CREDITCARD",23,false,18,0,5,0,true,true,true,false,2019-09-02 00:00:00
460,S 4 St & Wythe Ave,5204.05,40.71285887,-73.96590294,71,"KEY,CREDITCARD",25,false,18,1,6,0,true,true,true,false,2019-09-02 00:00:00
3648,Flushing Ave & Vanderbilt Ave,4762.05,40.697950315695444,-73.970775604248047,71,"KEY,CREDITCARD",25,false,18,1,6,0,true,true,true,false,2019-09-02 00:00:00
249,Harrison St & Hudson St,5400.05,40.71870987,-74.0090009,71,"KEY,CREDITCARD",27,false,18,1,8,0,true,true,true,false,2019-09-02 00:00:00
3504,E 123 St & Lexington Ave,7636.05,40.8029263,-73.9379,71,"KEY,CREDITCARD",27,true,18,1,8,0,true,true,true,true,2019-09-01 00:00:00
342,Columbia St & Rivington St,5365.02,40.71739973,-73.98016555,71,"KEY,CREDITCARD",29,true,18,1,10,0,true,true,true,true,2019-09-02 00:00:00
3721,31 St & Newtown Ave,6923.20,40.7675487799971,-73.9209334552288,71,"KEY,CREDITCARD",35,false,18,2,15,0,true,true,true,false,2019-09-02 00:00:00
3725,2 Ave & E 72 St,6925.09,40.7687620293096,-73.958407938480377,71,"KEY,CREDITCARD",41,false,18,1,22,0,true,true,true,false,2019-09-02 00:00:00
316,Fulton St & William St,5137.11,40.70955958,-74.00653609,71,"KEY,CREDITCARD",43,false,18,0,25,0,true,true,true,false,2019-09-02 00:00:00
446,W 24 St & 7 Ave,6257.03,40.74487634,-73.99529885,71,"KEY,CREDITCARD",47,false,18,0,29,0,true,true,true,false,2019-09-02 00:00:00
228,E 48 St & 3 Ave,6541.03,40.7546011026,-73.971878855,71,"KEY,CREDITCARD",55,false,18,0,37,0,true,true,true,false,2019-09-02 00:00:00
3393,Richards St & Delavan St,4202.04,40.6794327,-74.00785041,71,"KEY,CREDITCARD",19,false,19,0,0,0,true,true,true,false,2019-09-01 00:00:00
3596,Sullivan Pl & Bedford Ave,3736.04,40.6642406,-73.9574686,71,"KEY,CREDITCARD",19,false,19,0,0,0,true,true,true,false,2019-09-02 00:00:00
3619,Newtown Ave & 23 St,7026.08,40.7713615,-73.9246145,71,"KEY,CREDITCARD",19,false,19,0,0,0,true,true,true,false,2019-09-01 00:00:00
3621,27 Ave & 9 St,7098.05,40.7739825,-73.9309134,71,"KEY,CREDITCARD",19,false,19,0,0,0,true,true,true,false,2019-09-01 00:00:00
3394,Columbia St & W 9 St,4086.05,40.6769993,-74.00647134,71,"KEY,CREDITCARD",21,false,19,1,1,0,true,true,true,false,2019-09-01 00:00:00
3588,Vernon Blvd & 10 St,6937.07,40.7671863,-73.9373554,71,"KEY,CREDITCARD",21,false,19,1,1,0,true,true,true,false,2019-09-02 00:00:00
443,Bedford Ave & S 9 St,5093.01,40.70853074,-73.96408963,71,"KEY,CREDITCARD",23,false,19,1,3,0,true,true,true,false,2019-09-02 00:00:00
3315,Henry St & Degraw St,4380.08,40.6847514,-73.99917254,71,"KEY,CREDITCARD",23,false,19,1,3,0,true,true,true,false,2019-09-01 00:00:00
3609,Vernon Blvd & 31 Ave,7003.06,40.7692475,-73.9354504,71,"KEY,CREDITCARD",23,false,19,2,2,0,true,true,true,false,2019-09-02 00:00:00
3777,Stockholm St & Wilson Ave,4824.03,40.699304,-73.923044,71,"KEY,CREDITCARD",23,false,19,0,4,0,true,true,true,false,2019-09-02 00:00:00
3317,10 St & 5 Ave,3842.08,40.6686273,-73.98700053,71,"KEY,CREDITCARD",24,false,19,0,5,0,true,true,true,false,2019-09-01 00:00:00
3400,E 110 St & Madison Ave,7587.14,40.7961535,-73.94782145,71,"KEY,CREDITCARD",24,true,19,0,5,0,true,true,true,true,2019-09-02 00:00:00
3454,Leonard St & Maujer St,5148.03,40.7103685423523,-73.947059512138367,71,"KEY,CREDITCARD",24,false,19,0,5,0,true,true,true,false,2019-09-02 00:00:00
3804,Front St & Jay St,4895.03,40.702461,-73.986842,71,"KEY,CREDITCARD",24,false,19,0,5,0,true,true,true,false,2019-09-02 00:00:00
282,Kent Ave & S 11 St,5062.01,40.707644944175705,-73.968415260314941,71,"KEY,CREDITCARD",27,false,19,2,6,0,true,true,true,false,2019-09-02 00:00:00
3221,47 Ave & 31 St,6151.03,40.743,-73.93561,71,"KEY,CREDITCARD",27,false,19,0,8,0,true,true,true,false,2019-09-01 00:00:00
266,Avenue D & E 8 St,5506.10,40.72368361,-73.97574813,71,"KEY,CREDITCARD",30,false,19,1,10,0,true,true,true,false,2019-09-02 00:00:00
3723,Cadman Plaza E & Johnson St,4677.10,40.695317277669034,-73.990157246589661,71,"KEY,CREDITCARD",30,true,19,1,10,0,true,true,true,true,2019-09-02 00:00:00
347,Greenwich St & W Houston St,5730.08,40.728846,-74.008591,71,"KEY,CREDITCARD",35,false,19,1,15,0,true,true,true,false,2019-09-02 00:00:00
3127,9 St & 44 Rd,6361.03,40.74966,-73.9521,71,"KEY,CREDITCARD",35,false,19,0,16,0,true,true,true,false,2019-09-02 00:00:00
3540,Morningside Ave & W 123 St,7741.01,40.81,-73.9551508,71,"KEY,CREDITCARD",35,false,19,2,14,0,true,true,true,false,2019-09-02 00:00:00
2012,E 27 St & 1 Ave,6004.06,40.739445,-73.976806,71,"KEY,CREDITCARD",36,false,19,2,15,0,true,true,true,false,2019-09-02 00:00:00
473,Rivington St & Chrystie St,5453.01,40.72110063,-73.9919254,71,"KEY,CREDITCARD",38,false,19,1,18,0,true,true,true,false,2019-09-02 00:00:00
217,Old Fulton St,4903.08,40.70277159,-73.99383605,71,"KEY,CREDITCARD",39,true,19,1,19,0,true,true,true,true,2019-09-02 00:00:00
3100,Nassau Ave & Newell St,5623.03,40.724812564400175,-73.947526216506958,71,"KEY,CREDITCARD",51,false,19,1,31,0,true,true,true,false,2019-09-02 00:00:00
254,W 11 St & 6 Ave,5914.03,40.73532427,-73.99800419,71,"KEY,CREDITCARD",59,false,19,2,38,0,true,true,true,false,2019-09-02 00:00:00
494,W 26 St & 8 Ave,6297.02,40.74734825,-73.99723551,71,"KEY,CREDITCARD",66,false,19,2,44,1,true,true,true,false,2019-09-02 00:00:00
291,Madison St & Montgomery St,5262.09,40.713126,-73.984844,71,"KEY,CREDITCARD",20,false,20,0,0,0,true,true,true,false,2019-09-02 00:00:00
3192,Liberty Light Rail,JC052,40.7112423,-74.0557013,70,"KEY,CREDITCARD",21,false,20,1,0,0,true,true,true,false,2019-09-02 00:00:00
3333,Columbia St & Lorraine St,4103.08,40.6747055,-74.0075572,71,"KEY,CREDITCARD",21,false,20,0,1,0,true,true,true,false,2019-09-02 00:00:00
3347,Van Brunt St & Wolcott St,4095.03,40.6773429,-74.01275056,71,"KEY,CREDITCARD",21,false,20,0,1,0,true,true,true,false,2019-09-02 00:00:00
3498,Pleasant Ave & E 120 St,7579.01,40.7974772,-73.9311847,71,"KEY,CREDITCARD",21,false,20,0,1,0,true,true,true,false,2019-09-02 00:00:00
3513,21 St & Hoyt Ave S,7126.01,40.774645,-73.923706,71,"KEY,CREDITCARD",21,false,20,1,0,0,true,true,true,false,2019-09-01 00:00:00
3608,5 St & 51 Ave,6137.04,40.7423737,-73.9566,71,"KEY,CREDITCARD",21,false,20,0,1,0,true,true,true,false,2019-09-01 00:00:00
3398,Smith St & 9 St,4077.04,40.6746957,-73.99785768,71,"KEY,CREDITCARD",23,false,20,2,1,0,true,true,true,false,2019-09-02 00:00:00
3469,India St & West St,5794.03,40.731814017209658,-73.95995020866394,71,"KEY,CREDITCARD",23,false,20,1,1,1,true,true,true,false,2019-09-02 00:00:00
346,Bank St & Hudson St,5922.08,40.73652889,-74.00618026,71,"KEY,CREDITCARD",27,false,20,1,6,0,true,true,true,false,2019-09-02 00:00:00
3486,Schermerhorn St & Bond St,4479.08,40.688417427540834,-73.984516561031342,71,"KEY,CREDITCARD",30,false,20,1,9,0,true,true,true,false,2019-09-02 00:00:00
539,Metropolitan Ave & Bedford Ave,5308.04,40.71534825,-73.96024116,71,"KEY,CREDITCARD",31,false,20,2,9,0,true,true,true,false,2019-09-02 00:00:00
406,Hicks St & Montague St,4645.09,40.69512845,-73.99595065,71,"KEY,CREDITCARD",34,false,20,0,14,0,true,true,true,false,2019-09-02 00:00:00
388,W 26 St & 10 Ave,6382.05,40.749717753,-74.002950346,71,"KEY,CREDITCARD",35,false,20,1,14,0,true,true,true,false,2019-09-02 00:00:00
327,Vesey Pl & River Terrace,5297.02,40.7153379,-74.01658354,71,"KEY,CREDITCARD",39,true,20,2,17,0,true,true,true,true,2019-09-02 00:00:00
351,Front St & Maiden Ln,5024.08,40.70530954,-74.00612572,71,"KEY,CREDITCARD",39,false,20,0,19,0,true,true,true,false,2019-09-02 00:00:00
3169,Riverside Dr & W 82 St,7388.10,40.78720869,-73.98128127,71,"KEY,CREDITCARD",39,false,20,1,18,0,true,true,true,false,2019-09-02 00:00:00
462,W 22 St & 10 Ave,6306.06,40.74691959,-74.00451887,71,"KEY,CREDITCARD",47,false,20,0,27,0,true,true,true,false,2019-09-02 00:00:00
517,Pershing Square South,6432.08,40.751581,-73.97791,71,"KEY,CREDITCARD",69,false,20,3,46,0,true,true,true,false,2019-09-02 00:00:00
3326,Clinton St & Centre St,4045.01,40.67434,-74.00194698,71,"KEY,CREDITCARD",21,false,21,0,0,0,true,true,true,false,2019-09-01 00:00:00
3340,Wolcott St & Dwight St,4054.02,40.6753274,-74.0100698,71,"KEY,CREDITCARD",21,false,21,0,0,0,true,true,true,false,2019-09-01 00:00:00
3352,Sigourney St & Columbia St,3940.04,40.672672434109479,-74.0087952464819,71,"KEY,CREDITCARD",21,false,21,0,0,0,true,true,true,false,2019-09-01 00:00:00
3381,3 St & Hoyt St,4110.10,40.6777287,-73.99364123,71,"KEY,CREDITCARD",21,false,21,0,0,0,true,true,true,false,2019-09-01 00:00:00
3422,Columbia St & Degraw St,4422.04,40.6859296,-74.00242364,71,"KEY,CREDITCARD",21,false,21,0,0,0,true,true,true,false,2019-09-01 00:00:00
3511,Adam Clayton Powell Blvd & W 115 St,7643.18,40.802535,-73.9532423,71,"KEY,CREDITCARD",22,false,21,0,1,0,true,true,true,false,2019-09-01 00:00:00
248,Laight St & Hudson St,5539.06,40.72185379,-74.00771779,71,"KEY,CREDITCARD",23,false,21,0,2,0,true,true,true,false,2019-09-02 00:00:00
408,Market St & Cherry St,5198.04,40.71076228,-73.99400398,71,"KEY,CREDITCARD",23,false,21,1,1,0,true,true,true,false,2019-09-02 00:00:00
3298,Warren St & Court St,4413.08,40.686371,-73.99383324,71,"KEY,CREDITCARD",23,false,21,0,2,0,true,true,true,false,2019-09-02 00:00:00
3551,3 Ave & E 112 St,7543.15,40.795508,-73.941606,71,"KEY,CREDITCARD",23,false,21,1,1,0,true,true,true,false,2019-09-02 00:00:00
3577,34 Ave & 21 St,6798.01,40.7628138,-73.9342862,71,"KEY,CREDITCARD",23,false,21,0,2,0,true,true,true,false,2019-09-01 00:00:00
3774,Knickerbocker Ave & George St,4979.07,40.704425,-73.92836,71,"KEY,CREDITCARD",23,false,21,0,2,0,true,true,true,false,2019-09-02 00:00:00
3203,Hamilton Park,JC009,40.727595966,-74.044247311,70,"KEY,CREDITCARD",26,false,21,4,0,1,true,true,true,false,2019-09-02 00:00:00
2002,Wythe Ave & Metropolitan Ave,5348.02,40.716887,-73.963198,71,"KEY,CREDITCARD",27,false,21,0,6,0,true,true,true,false,2019-09-02 00:00:00
3699,W 50 St & 9 Ave,6854.05,40.763604677958625,-73.989179581403732,71,"KEY,CREDITCARD",30,false,21,1,8,0,true,true,true,false,2019-09-02 00:00:00
3414,Bergen St & Flatbush Ave,4281.08,40.680944723477296,-73.975673317909227,71,"KEY,CREDITCARD",33,false,21,1,11,0,true,true,true,false,2019-09-02 00:00:00
298,3 Ave & Schermerhorn St,4437.01,40.68683208,-73.9796772,71,"KEY,CREDITCARD",35,false,21,0,14,0,true,true,false,false,2019-09-02 00:00:00
360,William St & Pine St,5065.12,40.70717936,-74.00887308,71,"KEY,CREDITCARD",39,false,21,1,17,0,true,true,true,false,2019-09-02 00:00:00
402,Broadway & E 22 St,6098.07,40.7403432,-73.98955109,71,"KEY,CREDITCARD",39,false,21,0,18,0,true,true,true,false,2019-09-02 00:00:00
3457,E 58 St & Madison Ave,6839.04,40.763025942805193,-73.972095251083374,71,"KEY,CREDITCARD",46,false,21,1,24,0,true,true,true,false,2019-09-02 00:00:00
3733,Avenue C & E 18 St,5769.04,40.730563,-73.973984,71,"KEY,CREDITCARD",46,false,21,0,25,0,true,true,true,false,2019-09-02 00:00:00
3413,Wyckoff St & 3 Ave,4290.06,40.6827549,-73.98258555,71,"KEY,CREDITCARD",22,false,22,0,0,0,true,true,true,false,2019-09-02 00:00:00
328,Watts St & Greenwich St,5578.02,40.72405549,-74.00965965,71,"KEY,CREDITCARD",23,false,22,0,1,0,true,true,true,false,2019-09-02 00:00:00
3407,Union St & Nevins St,4143.03,40.679097997216843,-73.987654745578766,71,"KEY,CREDITCARD",23,false,22,0,1,0,true,true,true,false,2019-09-02 00:00:00
3514,Astoria Park S & Shore Blvd,7159.08,40.7767,-73.927631,71,"KEY,CREDITCARD",23,false,22,0,1,0,true,true,true,false,2019-09-02 00:00:00
3647,48 Ave & 30 Pl,6076.01,40.741283093559929,-73.937258720397935,71,"KEY,CREDITCARD",23,false,22,0,1,0,true,true,true,false,2019-09-02 00:00:00
3720,Wyckoff St & Bond St,4330.08,40.68461653897949,-73.987212851643562,71,"KEY,CREDITCARD",23,false,22,1,0,0,true,true,true,false,2019-09-01 00:00:00
3105,N 15 St & Wythe Ave,5520.09,40.724055,-73.955736,71,"KEY,CREDITCARD",24,false,22,1,1,0,true,true,true,false,2019-09-02 00:00:00
3399,7 St & 3 Ave,3996.01,40.672602981501257,-73.989830017089844,71,"KEY,CREDITCARD",24,false,22,0,2,0,true,true,true,false,2019-09-02 00:00:00
3779,Hart St & Wyckoff Ave,4971.01,40.704876,-73.919911,71,"KEY,CREDITCARD",24,false,22,1,1,0,true,true,true,false,2019-09-02 00:00:00
3002,South End Ave & Liberty St,5184.07,40.711512,-74.015756,71,"KEY,CREDITCARD",25,true,22,2,1,0,true,true,true,true,2019-09-02 00:00:00
3324,3 Ave & 14 St,3850.03,40.6685455,-73.99333264,71,"KEY,CREDITCARD",25,false,22,0,3,0,true,true,true,false,2019-09-02 00:00:00
3494,E 115 St & Lexington Ave,7599.09,40.797911,-73.9423,71,"KEY,CREDITCARD",25,false,22,0,3,0,true,true,true,false,2019-09-01 00:00:00
3646,35 Ave & 10 St,6806.06,40.763154819103733,-73.939855098724365,71,"KEY,CREDITCARD",26,false,22,1,3,0,true,true,true,false,2019-09-02 00:00:00
3668,Leonard St & Nassau Ave,5550.09,40.7239567849954,-73.949843645095825,71,"KEY,CREDITCARD",26,false,22,1,3,0,true,true,true,false,2019-09-02 00:00:00
3417,Baltic St & 5 Ave,4208.11,40.6795766,-73.97854971,71,"KEY,CREDITCARD",27,false,22,1,4,0,true,true,true,false,2019-09-02 00:00:00
3658,W 18 St & 9 Ave,6190.03,40.7435337324616,-74.003675580024719,71,"KEY,CREDITCARD",27,false,22,0,5,0,true,true,true,false,2019-09-02 00:00:00
412,Forsyth St & Canal St,5270.07,40.7158155,-73.99422366,71,"KEY,CREDITCARD",29,false,22,3,4,0,true,true,true,false,2019-09-02 00:00:00
307,Canal St & Rutgers St,5303.08,40.71427487,-73.98990025,71,"KEY,CREDITCARD",30,false,22,1,7,0,true,true,true,false,2019-09-02 00:00:00
274,Lafayette Ave & Fort Greene Pl,4395.04,40.68691865,-73.976682,71,"KEY,CREDITCARD",31,false,22,1,8,0,true,true,true,false,2019-09-02 00:00:00
3148,E 84 St & 1 Ave,7180.02,40.77565541,-73.95068615,71,"KEY,CREDITCARD",31,false,22,2,7,0,true,true,true,false,2019-09-02 00:00:00
3232,Bond St & Fulton St,4479.06,40.689621887903328,-73.983042687177658,71,"KEY,CREDITCARD",31,false,22,0,9,0,true,true,true,false,2019-09-02 00:00:00
3782,Brooklyn Bridge Park - Pier 2,4756.04,40.698458,-73.997178,71,"KEY,CREDITCARD",31,true,22,2,7,0,true,true,true,true,2019-09-01 00:00:00
3593,31 St & Broadway,6789.04,40.761584,-73.925921,71,"KEY,CREDITCARD",35,false,22,1,12,0,true,true,true,false,2019-09-02 00:00:00
3142,1 Ave & E 62 St,6753.08,40.7612274,-73.96094022,71,"KEY,CREDITCARD",41,false,22,1,18,0,true,true,true,false,2019-09-02 00:00:00
3479,Picnic Point,4374.01,40.685125595154148,-74.025353193283081,71,"KEY,CREDITCARD",45,false,22,2,21,0,true,true,true,false,2019-09-01 00:00:00
482,W 15 St & 7 Ave,6030.06,40.73935542,-73.99931783,71,"KEY,CREDITCARD",77,false,22,1,54,0,true,true,true,false,2019-09-02 00:00:00
3337,Dwight St & Van Dyke St,3981.10,40.673635513415043,-74.011955559253693,71,"KEY,CREDITCARD",23,false,23,0,0,0,true,true,true,false,2019-09-01 00:00:00
3339,Berkeley Pl & 6 Ave,4134.06,40.6765304,-73.97846879,71,"KEY,CREDITCARD",23,false,23,0,0,0,true,true,true,false,2019-09-02 00:00:00
3342,Pioneer St & Richards St,4128.08,40.6777748,-74.0094613,71,"KEY,CREDITCARD",23,false,23,0,0,0,true,true,true,false,2019-09-01 00:00:00
3614,Crescent St & 30 Ave,6958.06,40.768692,-73.9249574,71,"KEY,CREDITCARD",23,false,23,0,0,0,true,true,true,false,2019-09-02 00:00:00
3760,Willoughby Ave & Wyckoff Ave,5010.02,40.705614,-73.92153,71,"KEY,CREDITCARD",23,false,23,0,0,0,true,true,true,false,2019-09-02 00:00:00
2008,Little West St & 1 Pl,5001.08,40.70569254,-74.01677685,71,"KEY,CREDITCARD",24,true,23,1,0,0,true,true,true,true,2019-09-02 00:00:00
417,Barclay St & Church St,5216.04,40.71291224,-74.01020234,71,"KEY,CREDITCARD",25,false,23,0,2,0,true,true,true,false,2019-09-02 00:00:00
481,S 3 St & Bedford Ave,5235.05,40.71260486,-73.96264403,71,"KEY,CREDITCARD",25,false,23,2,0,0,true,true,true,false,2019-09-02 00:00:00
3384,Smith St & 3 St,4151.01,40.6787242,-73.99599099,71,"KEY,CREDITCARD",25,false,23,0,2,0,true,true,true,false,2019-09-02 00:00:00
3529,Lenox Ave & W 130 St,7753.13,40.8107922,-73.9430681,71,"KEY,CREDITCARD",25,false,23,1,1,0,true,true,true,false,2019-09-02 00:00:00
3404,7 St & 5 Ave,3914.02,40.6704922,-73.98541675,71,"KEY,CREDITCARD",27,false,23,0,4,0,true,true,true,false,2019-09-02 00:00:00
3520,Adam Clayton Powell Blvd & W 118 St,7670.09,40.804372,-73.951475,71,"KEY,CREDITCARD",27,false,23,0,4,0,true,true,true,false,2019-09-02 00:00:00
350,Clinton St & Grand St,5303.06,40.71559509,-73.9870295,71,"KEY,CREDITCARD",28,false,23,1,4,0,true,true,true,false,2019-09-02 00:00:00
390,Duffield St & Willoughby St,4596.05,40.69221589,-73.9842844,71,"KEY,CREDITCARD",31,false,23,0,8,0,true,true,true,false,2019-09-02 00:00:00
3112,Milton St & Franklin St,5752.07,40.72906,-73.95779,71,"KEY,CREDITCARD",33,false,23,0,10,0,true,true,true,false,2019-09-02 00:00:00
3629,Adam Clayton Powell Blvd & W 126 St,7738.04,40.809495347779475,-73.947764933109283,71,"KEY,CREDITCARD",33,false,23,1,9,0,true,true,true,false,2019-09-02 00:00:00
3518,Lenox Ave & W 126 St,7720.03,40.808442,-73.9452087,71,"KEY,CREDITCARD",34,true,23,0,11,0,true,true,true,true,2019-09-02 00:00:00
478,11 Ave & W 41 St,6726.01,40.76030096,-73.99884222,71,"KEY,CREDITCARD",37,false,23,2,12,0,true,true,true,false,2019-09-02 00:00:00
259,South St & Whitehall St,4846.01,40.70122128,-74.01234218,71,"KEY,CREDITCARD",39,true,23,3,13,0,true,true,true,true,2019-09-02 00:00:00
3305,E 91 St & 2 Ave,7286.01,40.781122299341661,-73.949655890464783,71,"KEY,CREDITCARD",39,false,23,2,14,0,true,true,true,false,2019-09-02 00:00:00
195,Liberty St & Broadway,5105.01,40.70905623,-74.01043382,71,"KEY,CREDITCARD",45,false,23,0,22,0,true,true,true,false,2019-09-02 00:00:00
459,W 20 St & 11 Ave,6306.07,40.746745,-74.007756,71,"KEY,CREDITCARD",49,true,23,0,26,0,true,true,true,true,2019-09-02 00:00:00
3108,Nassau Ave & Russell St,5581.01,40.72557,-73.94434,71,"KEY,CREDITCARD",51,false,23,0,28,0,true,true,true,false,2019-09-02 00:00:00
295,Pike St & E Broadway,5270.05,40.71406667,-73.99293911,71,"KEY,CREDITCARD",24,false,24,0,0,0,true,true,true,false,2019-09-02 00:00:00
530,11 Ave & W 59 St,7059.01,40.771496710544412,-73.990460336208344,71,"KEY,CREDITCARD",24,false,24,0,0,0,true,true,true,false,2019-09-02 00:00:00
3491,E 118 St & 1 Ave,7596.10,40.79747,-73.93504,71,"KEY,CREDITCARD",24,false,24,0,0,0,true,true,true,false,2019-09-02 00:00:00
3322,12 St & 4 Ave,3882.01,40.668603,-73.9904394,71,"KEY,CREDITCARD",25,false,24,1,0,0,true,true,true,false,2019-09-01 00:00:00
3351,E 102 St & 1 Ave,7407.13,40.7869946,-73.94164802,71,"KEY,CREDITCARD",25,false,24,1,0,0,true,true,true,false,2019-09-02 00:00:00
3396,Clinton St & 4 Place,4119.04,40.6783563,-74.00014502,71,"KEY,CREDITCARD",25,false,24,1,0,0,true,true,true,false,2019-09-01 00:00:00
3496,1 Ave & E 110 St,7522.02,40.7923272,-73.9383,71,"KEY,CREDITCARD",25,false,24,0,1,0,true,true,true,false,2019-09-02 00:00:00
3102,Driggs Ave & Lorimer St,5481.04,40.72179134,-73.9504154,71,"KEY,CREDITCARD",27,false,24,1,2,0,true,true,true,false,2019-09-02 00:00:00
3113,Greenpoint Ave & Manhattan Ave,5785.05,40.73026,-73.95394,71,"KEY,CREDITCARD",27,false,24,0,3,0,true,true,true,false,2019-09-02 00:00:00
3364,Carroll St & 5 Ave,4060.09,40.6751622,-73.9814832,71,"KEY,CREDITCARD",27,false,24,0,3,0,true,true,true,false,2019-09-02 00:00:00
3763,Wyckoff Av & Jefferson St,5051.01,40.707165,-73.923711,71,"KEY,CREDITCARD",27,false,24,0,3,0,true,true,true,false,2019-09-02 00:00:00
3803,Bedford Ave & Montgomery St,3736.03,40.665816,-73.956934,71,"KEY,CREDITCARD",27,false,24,0,3,0,true,true,true,false,2019-09-01 00:00:00
3389,Carroll St & Columbia St,4348.07,40.6830456,-74.00348559,71,"KEY,CREDITCARD",28,false,24,2,2,0,true,true,true,false,2019-09-02 00:00:00
3254,Soissons Landing,4590.01,40.69231660719192,-74.014865756034851,71,"KEY,CREDITCARD",29,false,24,4,1,0,true,true,true,false,2019-09-02 00:00:00
238,Bank St & Washington St,5964.01,40.7361967,-74.00859207,71,"KEY,CREDITCARD",31,false,24,2,5,0,true,true,true,false,2019-09-02 00:00:00
411,E 6 St & Avenue D,5506.14,40.72228087,-73.97668709,71,"KEY,CREDITCARD",31,false,24,1,0,6,true,true,true,false,2019-09-02 00:00:00
260,Broad St & Bridge St,4962.08,40.70365182,-74.01167797,71,"KEY,CREDITCARD",33,false,24,1,8,0,true,true,true,false,2019-09-02 00:00:00
487,E 20 St & FDR Drive,5886.02,40.73314259,-73.97573881,71,"KEY,CREDITCARD",34,false,24,2,8,0,true,true,true,false,2019-09-02 00:00:00
515,W 43 St & 10 Ave,6756.01,40.76009437,-73.99461843,71,"KEY,CREDITCARD",35,false,24,2,9,0,true,true,true,false,2019-09-02 00:00:00
465,Broadway & W 41 St,6560.01,40.75513557,-73.98658032,71,"KEY,CREDITCARD",39,false,24,0,15,0,true,true,true,false,2019-09-02 00:00:00
3107,Bedford Ave & Nassau Ave,5550.05,40.72311651,-73.95212324,71,"KEY,CREDITCARD",39,false,24,1,14,0,true,true,true,false,2019-09-02 00:00:00
3320,Central Park West & W 100 St,7538.12,40.794066608185517,-73.962868452072144,71,"KEY,CREDITCARD",49,true,24,1,24,0,true,true,true,true,2019-09-01 00:00:00
497,E 17 St & Broadway,5980.07,40.73704984,-73.99009296,71,"KEY,CREDITCARD",66,true,24,1,41,0,true,true,true,true,2019-09-02 00:00:00
3377,Carroll St & Bond St,4184.07,40.6786115,-73.99037292,71,"KEY,CREDITCARD",25,false,25,0,0,0,true,true,true,false,2019-09-02 00:00:00
3387,E 106 St & Madison Ave,7528.31,40.7934337,-73.94945003,71,"KEY,CREDITCARD",25,false,25,0,0,0,true,true,true,false,2019-09-02 00:00:00
3391,E 106 St & 1 Ave,7456.03,40.7892529,-73.93956237,71,"KEY,CREDITCARD",25,false,25,0,0,0,true,true,true,false,2019-09-01 00:00:00
3397,Court St & Nelson St,4077.07,40.6763947,-73.99869893,71,"KEY,CREDITCARD",25,false,25,0,0,0,true,true,true,false,2019-09-02 00:00:00
3495,E 114 St & 1 Ave,7540.02,40.7945663,-73.9362541,71,"KEY,CREDITCARD",26,false,25,0,1,0,true,true,true,false,2019-09-01 00:00:00
261,Johnson St & Gold St,4668.08,40.69474881,-73.98362464,71,"KEY,CREDITCARD",27,false,25,0,1,1,true,true,true,false,2019-09-02 00:00:00
331,Pike St & Monroe St,5159.04,40.71173107,-73.99193043,71,"KEY,CREDITCARD",27,false,25,0,2,0,true,true,true,false,2019-09-02 00:00:00
389,Broadway & Berry St,5164.04,40.71044554,-73.96525063,71,"KEY,CREDITCARD",27,false,25,0,2,0,true,true,true,false,2019-09-02 00:00:00
3327,3 Ave & E 100 St,7414.17,40.7877214,-73.94728331,71,"KEY,CREDITCARD",27,false,25,1,1,0,true,true,true,false,2019-09-02 00:00:00
3373,3 St & 3 Ave,4028.03,40.6750705,-73.98775226,71,"KEY,CREDITCARD",27,false,25,1,1,0,true,true,true,false,2019-09-02 00:00:00
3532,Ditmars Blvd & 19 St,7291.06,40.78145,-73.9183302,71,"KEY,CREDITCARD",27,false,25,1,1,0,true,true,true,false,2019-09-02 00:00:00
3761,Cedar St & Myrtle Ave,4751.01,40.697842,-73.926241,71,"KEY,CREDITCARD",27,false,25,0,2,0,true,true,true,false,2019-09-02 00:00:00
3762,3 Ave & Carroll St,4143.04,40.677027,-73.9865,71,"KEY,CREDITCARD",27,false,25,0,2,0,true,true,true,false,2019-09-02 00:00:00
3335,Union St & 4 Ave,4175.15,40.6772744,-73.98282002,71,"KEY,CREDITCARD",28,false,25,1,2,0,true,true,true,false,2019-09-02 00:00:00
3065,Union Ave & Wallabout St,4818.03,40.70029511,-73.95032283,71,"KEY,CREDITCARD",31,false,25,0,6,0,true,true,true,false,2019-09-02 00:00:00
3509,Lenox Ave & W 115 St,7627.10,40.8011939,-73.9500739,71,"KEY,CREDITCARD",31,false,25,0,6,0,true,true,true,false,2019-09-02 00:00:00
3461,Murray St & Greenwich St,5288.12,40.714851505262516,-74.011223316192627,71,"KEY,CREDITCARD",33,false,25,1,7,0,true,true,true,false,2019-09-02 00:00:00
2009,Catherine St & Monroe St,5128.04,40.71117444,-73.99682619,71,"KEY,CREDITCARD",35,false,25,0,10,0,true,true,true,false,2019-09-02 00:00:00
3517,31 St & Hoyt Ave N,7018.01,40.7711528,-73.9170074,71,"KEY,CREDITCARD",35,false,25,0,10,0,true,true,true,false,2019-09-02 00:00:00
257,Lispenard St & Broadway,5391.06,40.71939226,-74.00247214,71,"KEY,CREDITCARD",39,false,25,1,13,0,true,true,true,false,2019-09-02 00:00:00
314,Cadman Plaza West & Montague St,4677.07,40.69383,-73.990539,71,"KEY,CREDITCARD",39,false,25,0,14,0,true,true,true,false,2019-09-02 00:00:00
323,Lawrence St & Willoughby St,4596.09,40.69236178,-73.98631746,71,"KEY,CREDITCARD",39,false,25,0,14,0,true,true,true,false,2019-09-02 00:00:00
330,Reade St & Broadway,5247.10,40.71450451,-74.00562789,71,"KEY,CREDITCARD",39,false,25,0,14,0,true,true,true,false,2019-09-02 00:00:00
495,W 47 St & 10 Ave,6824.07,40.76269882,-73.99301222,71,"KEY,CREDITCARD",39,false,25,2,12,0,true,true,true,false,2019-09-02 00:00:00
528,2 Ave & E 31 St,6197.02,40.74290902,-73.97706058,71,"KEY,CREDITCARD",39,false,25,1,13,0,true,true,true,false,2019-09-02 00:00:00
173,Broadway & W 49 St,6708.02,40.76068327096592,-73.9845272898674,71,"KEY,CREDITCARD",51,false,25,0,26,0,true,true,true,false,2019-09-02 00:00:00
3164,Columbus Ave & W 72 St,7175.05,40.7770575,-73.97898475,71,"KEY,CREDITCARD",67,false,25,0,42,0,true,true,true,false,2019-09-02 00:00:00
308,St James Pl & Oliver St,5238.05,40.71307916,-73.99851193,71,"KEY,CREDITCARD",27,false,26,1,0,0,true,true,true,false,2019-09-02 00:00:00
321,Cadman Plaza E & Red Cross Pl,4821.06,40.69991755,-73.98971773,71,"KEY,CREDITCARD",27,true,26,1,0,0,true,true,true,true,2019-09-02 00:00:00
3123,31 St & Thomson Ave,6227.02,40.74469738,-73.93540375,71,"KEY,CREDITCARD",27,false,26,1,0,0,true,true,true,false,2019-09-01 00:00:00
3259,9 Ave & W 28 St,6416.08,40.749370241932773,-73.999233841896057,71,"KEY,CREDITCARD",27,false,26,0,1,0,true,true,true,false,2019-09-02 00:00:00
3408,Congress St & Clinton St,4455.07,40.6881529,-73.99520919,71,"KEY,CREDITCARD",27,false,26,1,0,0,true,true,true,false,2019-09-01 00:00:00
3419,Douglass St & 4 Ave,4175.14,40.6792788,-73.98154004,71,"KEY,CREDITCARD",27,false,26,1,0,0,true,true,true,false,2019-09-02 00:00:00
3778,Irving Ave & DeKalb Ave,4898.02,40.7027,-73.92095,71,"KEY,CREDITCARD",27,false,26,0,1,0,true,true,true,false,2019-09-02 00:00:00
146,Hudson St & Reade St,5359.10,40.71625008,-74.0091059,71,"KEY,CREDITCARD",39,false,26,1,12,0,true,true,true,false,2019-09-02 00:00:00
3318,2 Ave & E 96 St,7338.02,40.7839636,-73.9471673,71,"KEY,CREDITCARD",39,false,26,0,13,0,true,true,true,false,2019-09-02 00:00:00
422,W 59 St & 10 Ave,7023.04,40.770513,-73.988038,71,"KEY,CREDITCARD",79,false,26,2,51,0,true,true,true,false,2019-09-02 00:00:00
82,St James Pl & Pearl St,5167.06,40.71117416,-74.00016545,71,"KEY,CREDITCARD",27,false,27,0,0,0,true,true,true,false,2019-09-02 00:00:00
264,Maiden Ln & Pearl St,5065.10,40.70706456,-74.00731853,71,"KEY,CREDITCARD",27,false,27,0,0,0,true,true,true,false,2019-09-02 00:00:00
340,Madison St & Clinton St,5190.07,40.71269042,-73.98776323,71,"KEY,CREDITCARD",27,true,27,0,0,0,true,true,true,true,2019-09-02 00:00:00
3117,Franklin St & Dupont St,5944.01,40.73564,-73.95866,71,"KEY,CREDITCARD",27,false,27,0,0,0,true,true,true,false,2019-09-02 00:00:00
